stop_id,stop_name,stop_lat,stop_lon,location_type,wheelchair_boarding,location
1,Jackson & Austin Terminal,41.87632184,-87.77410482,0,1,"(41.87632184, -87.77410482)"
2,5900 W Jackson,41.87706679,-87.77131794,0,1,"(41.87706679, -87.77131794)"
3,Jackson & Menard,41.87695725,-87.76975039,0,1,"(41.87695725, -87.76975039)"
4,5700 W Jackson,41.87702418,-87.76745055,0,1,"(41.87702418, -87.76745055)"
6,Jackson & Lotus,41.876513,-87.761446,0,1,"(41.876513, -87.761446)"
7,5351 W Jackson,41.87655197,-87.75892544,0,1,"(41.87655197, -87.75892544)"
8,Jackson & Lockwood,41.876564,-87.757313,0,1,"(41.876564, -87.757313)"
9,Jackson & Laramie,41.87659463,-87.75461526,0,1,"(41.87659463, -87.75461526)"
10,Jackson & Leamington,41.87662635,-87.7531684,0,1,"(41.87662635, -87.7531684)"
11,5047 W Jackson,41.8766513,-87.75128256,0,1,"(41.8766513, -87.75128256)"
12,Jackson & Lavergne,41.87662062,-87.74912362,0,1,"(41.87662062, -87.74912362)"
13,4849 W Jackson,41.87668892,-87.74701737,0,1,"(41.87668892, -87.74701737)"
14,Jackson & Cicero,41.87676314,-87.74483066,0,1,"(41.87676314, -87.74483066)"
15,Jackson & Kilpatrick,41.87682975,-87.74254901,0,1,"(41.87682975, -87.74254901)"
16,Jackson & Kenton,41.87683358,-87.74058525,0,1,"(41.87683358, -87.74058525)"
17,Jackson & Kolmar,41.87685748,-87.73934698,0,1,"(41.87685748, -87.73934698)"
18,Jackson & Kilbourn,41.87688572,-87.73761421,0,1,"(41.87688572, -87.73761421)"
19,Jackson & Kostner,41.87691497,-87.73515882,0,1,"(41.87691497, -87.73515882)"
20,Jackson & Kildare,41.876933,-87.73265,0,1,"(41.876933, -87.73265)"
21,Jackson & Keeler,41.876963,-87.7302,0,1,"(41.876963, -87.7302)"
22,Jackson & Karlov,41.8770066,-87.72780787,0,1,"(41.8770066, -87.72780787)"
23,Jackson & Pulaski,41.87704003,-87.72532923,0,1,"(41.87704003, -87.72532923)"
24,Jackson & Springfield,41.87706855,-87.72295441,0,1,"(41.87706855, -87.72295441)"
25,Jackson & Hamlin,41.87708065,-87.72082664,0,1,"(41.87708065, -87.72082664)"
26,Jackson & Central Park,41.87714182,-87.7154772,0,1,"(41.87714182, -87.7154772)"
27,Jackson & St. Louis,41.877181,-87.713241,0,1,"(41.877181, -87.713241)"
29,Jackson & Spaulding,41.87723116,-87.70827664,0,1,"(41.87723116, -87.70827664)"
30,Jackson & Kedzie,41.87725804,-87.70577393,0,1,"(41.87725804, -87.70577393)"
31,Jackson & Albany,41.877288,-87.703323,0,1,"(41.877288, -87.703323)"
32,Jackson & Sacramento,41.877318,-87.700867,0,1,"(41.877318, -87.700867)"
33,Jackson & Francisco,41.877348,-87.69841,0,1,"(41.877348, -87.69841)"
34,Jackson & California,41.87737082,-87.69595515,0,1,"(41.87737082, -87.69595515)"
35,Jackson & Washtenaw,41.87739943,-87.69355299,0,1,"(41.87739943, -87.69355299)"
36,2609 W Jackson,41.8774236,-87.69165753,0,1,"(41.8774236, -87.69165753)"
38,Jackson & Western,41.877478,-87.686093,0,1,"(41.877478, -87.686093)"
39,Jackson & Oakley,41.877496,-87.683652,0,1,"(41.877496, -87.683652)"
40,Jackson & Leavitt,41.87754396,-87.68127094,0,1,"(41.87754396, -87.68127094)"
41,Jackson & Hoyne,41.87739502,-87.67873587,0,1,"(41.87739502, -87.67873587)"
42,Jackson & Damen,41.877421,-87.67667235,0,1,"(41.877421, -87.67667235)"
44,Damen & Congress,41.87513747,-87.67664239,0,1,"(41.87513747, -87.67664239)"
48,Harrison & Wood,41.874059,-87.671334,0,1,"(41.874059, -87.671334)"
49,Harrison & Paulina,41.87409,-87.669231,0,1,"(41.87409, -87.669231)"
50,Ashland & Congress,41.87508698,-87.66643194,0,1,"(41.87508698, -87.66643194)"
51,Ashland & Van Buren,41.87655158,-87.66651521,0,1,"(41.87655158, -87.66651521)"
52,Malcolm X College,41.87743988,-87.67402389,0,1,"(41.87743988, -87.67402389)"
53,Jackson & Ogden,41.87748733,-87.67103731,0,1,"(41.87748733, -87.67103731)"
54,Jackson & Paulina,41.8775244,-87.66899047,0,1,"(41.8775244, -87.66899047)"
55,Jackson & Ashland,41.87755467,-87.66689065,0,1,"(41.87755467, -87.66689065)"
56,Jackson & Laflin,41.87759,-87.664068,0,1,"(41.87759, -87.664068)"
57,Jackson & Loomis,41.877634,-87.661652,0,1,"(41.877634, -87.661652)"
59,Jackson & Racine,41.87772931,-87.65677916,0,1,"(41.87772931, -87.65677916)"
60,Jackson & Aberdeen,41.877751,-87.654338,0,1,"(41.877751, -87.654338)"
61,Jackson & Morgan,41.87780698,-87.65169869,0,1,"(41.87780698, -87.65169869)"
63,Jackson & Peoria,41.87784819,-87.64946073,0,1,"(41.87784819, -87.64946073)"
64,Jackson & Halsted,41.8778898,-87.64696658,0,1,"(41.8778898, -87.64696658)"
65,Jackson & Desplaines,41.87792686,-87.64375065,0,1,"(41.87792686, -87.64375065)"
67,Jackson & Canal,41.877997,-87.639776,0,1,"(41.877997, -87.639776)"
68,Jackson & Franklin,41.878051,-87.635401,0,1,"(41.878051, -87.635401)"
69,Jackson & Financial Place,41.878081,-87.632868,0,1,"(41.878081, -87.632868)"
70,Jackson & Dearborn,41.878121,-87.629467,0,1,"(41.878121, -87.629467)"
71,Jackson & State,41.878141,-87.627899,0,1,"(41.878141, -87.627899)"
72,Jackson & Wabash,41.878208,-87.625752,0,1,"(41.878208, -87.625752)"
73,Michigan & Van Buren/Congress,41.876271,-87.624396,0,1,"(41.876271, -87.624396)"
74,Congress Plaza & Michigan,41.87485809,-87.62355113,0,1,"(41.87485809, -87.62355113)"
75,Michigan & Van Buren,41.87669,-87.62416,0,1,"(41.87669, -87.62416)"
76,Michigan & Jackson,41.878135,-87.624193,0,1,"(41.878135, -87.624193)"
77,Adams & Wabash,41.879575,-87.625884,0,1,"(41.879575, -87.625884)"
80,Adams & Wells,41.879426,-87.634024,0,1,"(41.879426, -87.634024)"
86,Van Buren & Jefferson,41.876778,-87.642319,0,1,"(41.876778, -87.642319)"
87,Van Buren & Desplaines,41.87676,-87.643782,0,1,"(41.87676, -87.643782)"
88,Van Buren & Halsted,41.876726,-87.647048,0,1,"(41.876726, -87.647048)"
89,Van Buren & Peoria,41.876682,-87.649401,0,1,"(41.876682, -87.649401)"
92,Van Buren & Aberdeen,41.87661688,-87.6544072,0,1,"(41.87661688, -87.6544072)"
93,Van Buren & Racine,41.87657583,-87.65680352,0,1,"(41.87657583, -87.65680352)"
94,Van Buren & Throop,41.87652937,-87.65932106,0,1,"(41.87652937, -87.65932106)"
96,Van Buren & Laflin,41.87644665,-87.66410017,0,1,"(41.87644665, -87.66410017)"
97,Van Buren & Ashland,41.87640948,-87.66647087,0,1,"(41.87640948, -87.66647087)"
99,Van Buren & Ogden,41.87632903,-87.67187647,0,1,"(41.87632903, -87.67187647)"
100,Malcolm X College,41.876242,-87.674057,0,1,"(41.876242, -87.674057)"
101,Van Buren & Damen,41.87624,-87.676072,0,1,"(41.87624, -87.676072)"
103,Harrison & Paulina,41.87421,-87.66897,0,1,"(41.87421, -87.66897)"
107,Harrison & Ogden,41.8741415,-87.67454701,0,1,"(41.8741415, -87.67454701)"
108,Harrison & Damen,41.87410934,-87.67632053,0,1,"(41.87410934, -87.67632053)"
111,Damen & Jackson,41.87740942,-87.67635136,0,1,"(41.87740942, -87.67635136)"
118,Jackson & Rockwell,41.87755894,-87.69097077,0,1,"(41.87755894, -87.69097077)"
119,Jackson & Washtenaw,41.87752503,-87.69403232,0,1,"(41.87752503, -87.69403232)"
120,Jackson & California,41.87749585,-87.69648347,0,1,"(41.87749585, -87.69648347)"
121,Jackson & Francisco,41.87747326,-87.6987788,0,1,"(41.87747326, -87.6987788)"
122,Jackson & Sacramento,41.87744329,-87.70133446,0,1,"(41.87744329, -87.70133446)"
123,Jackson & Albany,41.87740982,-87.70378269,0,1,"(41.87740982, -87.70378269)"
124,Jackson & Kedzie,41.87739519,-87.70627812,0,1,"(41.87739519, -87.70627812)"
125,Jackson & Spaulding,41.8773701,-87.70855292,0,1,"(41.8773701, -87.70855292)"
126,Jackson & Homan,41.87735315,-87.71111733,0,1,"(41.87735315, -87.71111733)"
127,Jackson & St. Louis,41.87730566,-87.71365567,0,1,"(41.87730566, -87.71365567)"
128,Central Park & Jackson,41.87701673,-87.7158695,0,1,"(41.87701673, -87.7158695)"
129,Jackson & Hamlin,41.8772105,-87.72104802,0,1,"(41.8772105, -87.72104802)"
130,Jackson & Springfield,41.8771684,-87.72332492,0,1,"(41.8771684, -87.72332492)"
131,Jackson & Pulaski,41.87713666,-87.72579473,0,1,"(41.87713666, -87.72579473)"
132,Jackson & Karlov,41.87710765,-87.72819551,0,1,"(41.87710765, -87.72819551)"
133,Jackson & Keeler,41.87707727,-87.73064873,0,1,"(41.87707727, -87.73064873)"
134,Jackson & Kildare,41.8770945,-87.73310614,0,1,"(41.8770945, -87.73310614)"
135,Jackson & Kostner,41.87701751,-87.73555571,0,1,"(41.87701751, -87.73555571)"
136,Jackson & Kilbourn,41.87698719,-87.737991,0,1,"(41.87698719, -87.737991)"
137,Jackson & Kolmar,41.87696338,-87.73943465,0,1,"(41.87696338, -87.73943465)"
138,Jackson & Kenton,41.87696546,-87.74069588,0,1,"(41.87696546, -87.74069588)"
139,Jackson & Kilpatrick,41.87692666,-87.74280741,0,1,"(41.87692666, -87.74280741)"
140,Jackson & Cicero,41.87685893,-87.74541898,0,1,"(41.87685893, -87.74541898)"
141,4900 W Jackson,41.87682102,-87.74713903,0,1,"(41.87682102, -87.74713903)"
142,Jackson & Lavergne,41.87680393,-87.74934028,0,1,"(41.87680393, -87.74934028)"
143,5056 W Jackson,41.87675729,-87.75161217,0,1,"(41.87675729, -87.75161217)"
144,Jackson & Leamington,41.87672858,-87.75353528,0,1,"(41.87672858, -87.75353528)"
145,Jackson & Laramie,41.87673038,-87.75523999,0,1,"(41.87673038, -87.75523999)"
146,Jackson & Lockwood,41.8766768,-87.75782934,0,1,"(41.8766768, -87.75782934)"
147,5400 W Jackson,41.87664899,-87.75967824,0,1,"(41.87664899, -87.75967824)"
148,Jackson & Lotus,41.87661212,-87.76154549,0,1,"(41.87661212, -87.76154549)"
149,Jackson & Central,41.87660365,-87.76459825,0,1,"(41.87660365, -87.76459825)"
150,5700 W Jackson,41.87716981,-87.76801292,0,1,"(41.87716981, -87.76801292)"
151,Jackson & Menard,41.8771099,-87.76974453,0,1,"(41.8771099, -87.76974453)"
152,Jackson & Mayfield,41.87723809,-87.7713027,0,1,"(41.87723809, -87.7713027)"
153,Harrison & Central Terminal,41.872683,-87.76479999,0,1,"(41.872683, -87.76479999)"
154,Harrison & Lotus,41.872803,-87.761654,0,1,"(41.872803, -87.761654)"
155,5400 W Harrison,41.8729,-87.759367,0,1,"(41.8729, -87.759367)"
156,Harrison & Lockwood,41.872855,-87.75752,0,1,"(41.872855, -87.75752)"
157,Harrison & Laramie,41.87288253,-87.75449102,0,1,"(41.87288253, -87.75449102)"
158,Harrison & Leamington,41.87289309,-87.75318511,0,1,"(41.87289309, -87.75318511)"
159,Harrison & Lavergne,41.87300185,-87.74920832,0,1,"(41.87300185, -87.74920832)"
160,Harrison & Cicero,41.87306462,-87.74514556,0,1,"(41.87306462, -87.74514556)"
161,Harrison & Kilpatrick,41.873099,-87.742661,0,1,"(41.873099, -87.742661)"
162,4630 W Harrison,41.873198,-87.740893,0,1,"(41.873198, -87.740893)"
163,Harrison & Kolmar,41.873205,-87.739488,0,1,"(41.873205, -87.739488)"
164,Harrison & Kilbourn,41.87321343,-87.73794849,0,1,"(41.87321343, -87.73794849)"
165,Harrison & Kostner,41.87376435,-87.73549587,0,1,"(41.87376435, -87.73549587)"
166,Kostner & Lexington,41.871629,-87.735223,0,1,"(41.871629, -87.735223)"
167,Fifth Avenue & Kostner,41.87026275,-87.73495185,0,1,"(41.87026275, -87.73495185)"
168,Fifth Avenue & Kildare,41.87089987,-87.73270091,0,1,"(41.87089987, -87.73270091)"
169,Fifth Avenue & Keeler,41.8716,-87.730102,0,1,"(41.8716, -87.730102)"
170,Fifth Avenue & Karlov,41.872297,-87.727603,0,1,"(41.872297, -87.727603)"
171,Fifth Avenue & Pulaski,41.87289549,-87.72557064,0,1,"(41.87289549, -87.72557064)"
172,Harrison & Springfield,41.873419,-87.723087,0,1,"(41.873419, -87.723087)"
174,Harrison & Independence,41.873457,-87.719565,0,1,"(41.873457, -87.719565)"
175,Harrison & Lawndale,41.873469,-87.718216,0,1,"(41.873469, -87.718216)"
177,Harrison & St. Louis,41.873541,-87.713327,0,1,"(41.873541, -87.713327)"
178,Harrison & Homan,41.873566,-87.71088,0,1,"(41.873566, -87.71088)"
179,Harrison & Spaulding,41.873602,-87.708461,0,1,"(41.873602, -87.708461)"
181,Harrison & Albany,41.87365176,-87.70351379,0,1,"(41.87365176, -87.70351379)"
182,Harrison & Sacramento,41.87368976,-87.70104879,0,1,"(41.87368976, -87.70104879)"
183,Harrison & Francisco,41.873716,-87.698661,0,1,"(41.873716, -87.698661)"
185,Harrison & Washtenaw,41.873755,-87.693779,0,1,"(41.873755, -87.693779)"
186,Harrison & Maplewood,41.873785,-87.690705,0,1,"(41.873785, -87.690705)"
187,Harrison & Campbell,41.873804,-87.688797,0,1,"(41.873804, -87.688797)"
188,Harrison & Western,41.87382334,-87.686408,0,1,"(41.87382334, -87.686408)"
189,Harrison & Oakley,41.873882,-87.683913,0,1,"(41.873882, -87.683913)"
190,Harrison & Leavitt,41.873911,-87.681449,0,1,"(41.873911, -87.681449)"
191,Harrison & Hoyne,41.87395,-87.67899,0,1,"(41.87395, -87.67899)"
192,Harrison & Damen,41.87397341,-87.67659224,0,1,"(41.87397341, -87.67659224)"
193,Harrison & Ashland,41.87410558,-87.6667937,0,1,"(41.87410558, -87.6667937)"
194,Harrison & Laflin,41.874122,-87.664252,0,1,"(41.874122, -87.664252)"
195,Harrison & Loomis,41.874138,-87.661926,0,1,"(41.874138, -87.661926)"
196,1335 W Harrison,41.874142,-87.660176,0,1,"(41.874142, -87.660176)"
197,1231 W Harrison,41.874128,-87.658412,0,1,"(41.874128, -87.658412)"
198,Harrison & Racine,41.874191,-87.657167,0,1,"(41.874191, -87.657167)"
199,1100 W Harrison,41.874231,-87.654349,0,1,"(41.874231, -87.654349)"
200,Harrison & Morgan,41.874283,-87.651938,0,1,"(41.874283, -87.651938)"
201,900 W Harrison,41.874341,-87.649132,0,1,"(41.874341, -87.649132)"
204,Halsted & Jackson,41.877832,-87.647165,0,1,"(41.877832, -87.647165)"
206,Harrison & Halsted,41.874441,-87.64775,0,1,"(41.874441, -87.64775)"
207,900 W Harrison,41.87447761,-87.64986281,0,1,"(41.87447761, -87.64986281)"
208,Harrison & Morgan,41.874463,-87.651583,0,1,"(41.874463, -87.651583)"
209,1100 W Harrison,41.874376,-87.65445,0,1,"(41.874376, -87.65445)"
210,Harrison & Racine,41.87433,-87.657447,0,1,"(41.87433, -87.657447)"
211,1232 W Harrison,41.87432,-87.658436,0,1,"(41.87432, -87.658436)"
212,1336 W Harrison,41.874335,-87.660199,0,1,"(41.874335, -87.660199)"
213,Harrison & Loomis,41.874271,-87.661608,0,1,"(41.874271, -87.661608)"
214,Harrison & Laflin,41.874251,-87.66414,0,1,"(41.874251, -87.66414)"
215,Harrison & Ashland,41.87427625,-87.66636841,0,1,"(41.87427625, -87.66636841)"
216,Harrison & Hoyne,41.874037,-87.678729,0,1,"(41.874037, -87.678729)"
217,Harrison & Leavitt,41.874009,-87.681205,0,1,"(41.874009, -87.681205)"
218,Harrison & Oakley,41.87398752,-87.68358895,0,1,"(41.87398752, -87.68358895)"
219,Harrison & Western,41.87396137,-87.68600523,0,1,"(41.87396137, -87.68600523)"
220,Harrison & Campbell,41.873922,-87.688543,0,1,"(41.873922, -87.688543)"
221,Harrison & Maplewood,41.873913,-87.690493,0,1,"(41.873913, -87.690493)"
222,Harrison & Washtenaw,41.87385,-87.693579,0,1,"(41.87385, -87.693579)"
223,Harrison & California,41.87385973,-87.69597837,0,1,"(41.87385973, -87.69597837)"
224,Harrison & Francisco,41.873809,-87.698405,0,1,"(41.873809, -87.698405)"
225,Harrison & Sacramento,41.87385863,-87.70085097,0,1,"(41.87385863, -87.70085097)"
226,Harrison & Albany,41.87382263,-87.70329197,0,1,"(41.87382263, -87.70329197)"
227,Harrison & Kedzie,41.8737524,-87.70571896,0,1,"(41.8737524, -87.70571896)"
228,Congress & Kedzie,41.87496738,-87.70608349,0,1,"(41.87496738, -87.70608349)"
229,Congress & Spaulding,41.87460174,-87.70823931,0,1,"(41.87460174, -87.70823931)"
230,Congress & Homan,41.87459474,-87.71053731,0,1,"(41.87459474, -87.71053731)"
231,Congress & St. Louis,41.87437666,-87.71239028,0,1,"(41.87437666, -87.71239028)"
233,3700 W Congress,41.87452996,-87.71790509,0,1,"(41.87452996, -87.71790509)"
234,Congress & Hamlin/Independence,41.87450949,-87.71961417,0,1,"(41.87450949, -87.71961417)"
235,Congress & Springfield,41.874496,-87.722588,0,1,"(41.874496, -87.722588)"
237,Congress & Karlov,41.87439868,-87.72774701,0,1,"(41.87439868, -87.72774701)"
239,Congress & Kildare,41.87434644,-87.73270301,0,1,"(41.87434644, -87.73270301)"
240,Harrison & Kostner,41.87377475,-87.73569932,0,1,"(41.87377475, -87.73569932)"
241,Harrison & Kilbourn,41.87334431,-87.73746946,0,1,"(41.87334431, -87.73746946)"
242,Harrison & Kolmar,41.87330223,-87.73913875,0,1,"(41.87330223, -87.73913875)"
243,4630 W Harrison,41.87324864,-87.74082431,0,1,"(41.87324864, -87.74082431)"
244,Harrison & Kilpatrick,41.87319817,-87.7424164,0,1,"(41.87319817, -87.7424164)"
246,Harrison & Lavergne,41.87307396,-87.74898757,0,1,"(41.87307396, -87.74898757)"
247,Harrison & Leamington,41.87305352,-87.75320123,0,1,"(41.87305352, -87.75320123)"
248,Harrison & Laramie,41.8730184,-87.75465067,0,1,"(41.8730184, -87.75465067)"
249,Harrison & Lockwood,41.87295351,-87.75730323,0,1,"(41.87295351, -87.75730323)"
250,5400 W Harrison,41.87295262,-87.75948024,0,1,"(41.87295262, -87.75948024)"
252,Harrison & Central,41.87292396,-87.76447722,0,1,"(41.87292396, -87.76447722)"
257,5500 W Roosevelt,41.86555077,-87.76277284,0,1,"(41.86555077, -87.76277284)"
258,Roosevelt & 54th Avenue,41.86559297,-87.75945922,0,1,"(41.86559297, -87.75945922)"
259,5300 W. Roosevelt,41.86564938,-87.75705277,0,1,"(41.86564938, -87.75705277)"
260,Roosevelt & Laramie,41.86564859,-87.75467392,0,1,"(41.86564859, -87.75467392)"
261,Roosevelt & 51st Avenue,41.86573504,-87.75213825,0,1,"(41.86573504, -87.75213825)"
262,Roosevelt & 50th Avenue,41.86574977,-87.74975926,0,1,"(41.86574977, -87.74975926)"
263,Roosevelt & 49th Avenue,41.86578791,-87.74732747,0,1,"(41.86578791, -87.74732747)"
265,Roosevelt & 47th Avenue,41.86585838,-87.74241065,0,1,"(41.86585838, -87.74241065)"
268,Roosevelt & Kilbourn,41.8659273,-87.73749989,0,1,"(41.8659273, -87.73749989)"
270,Roosevelt & Kildare,41.86599795,-87.73259722,0,1,"(41.86599795, -87.73259722)"
272,Roosevelt & Karlov,41.866075,-87.727721,0,1,"(41.866075, -87.727721)"
274,Roosevelt & Springfield,41.86611509,-87.72282126,0,1,"(41.86611509, -87.72282126)"
275,Roosevelt & Independence,41.86614847,-87.72026246,0,1,"(41.86614847, -87.72026246)"
277,Roosevelt & Lawndale,41.86617777,-87.71794192,0,1,"(41.86617777, -87.71794192)"
278,Roosevelt & Central Park,41.86620404,-87.71563462,0,1,"(41.86620404, -87.71563462)"
279,Roosevelt & St. Louis,41.866258,-87.713081,0,1,"(41.866258, -87.713081)"
280,Roosevelt & Homan,41.86626105,-87.71072506,0,1,"(41.86626105, -87.71072506)"
283,Roosevelt & Albany,41.86634562,-87.703247,0,1,"(41.86634562, -87.703247)"
284,Roosevelt & Sacramento,41.8663703,-87.7009535,0,1,"(41.8663703, -87.7009535)"
285,Roosevelt & Francisco,41.866419,-87.698427,0,1,"(41.866419, -87.698427)"
287,Roosevelt & Washtenaw,41.866475,-87.693527,0,1,"(41.866475, -87.693527)"
288,Roosevelt & Talman,41.866485,-87.692302,0,1,"(41.866485, -87.692302)"
296,Roosevelt & Wolcott,41.86662475,-87.6735674,0,1,"(41.86662475, -87.6735674)"
297,Roosevelt & Wood,41.86664343,-87.67146821,0,1,"(41.86664343, -87.67146821)"
298,Roosevelt & Paulina,41.86669057,-87.66900774,0,1,"(41.86669057, -87.66900774)"
300,Roosevelt & Laflin,41.86676743,-87.66409989,0,1,"(41.86676743, -87.66409989)"
302,Roosevelt & Throop,41.86684613,-87.65925658,0,1,"(41.86684613, -87.65925658)"
303,Roosevelt & Racine,41.86688693,-87.65681615,0,1,"(41.86688693, -87.65681615)"
305,Roosevelt & Blue Island,41.86693795,-87.65360529,0,1,"(41.86693795, -87.65360529)"
306,Roosevelt & Morgan,41.86702954,-87.65122372,0,1,"(41.86702954, -87.65122372)"
307,900 W Roosevelt,41.86700611,-87.64940554,0,1,"(41.86700611, -87.64940554)"
310,Roosevelt & Jefferson,41.86711861,-87.64227064,0,1,"(41.86711861, -87.64227064)"
312,Roosevelt & Canal,41.86713891,-87.63882598,0,1,"(41.86713891, -87.63882598)"
313,327 W Roosevelt,41.86718878,-87.63557243,0,1,"(41.86718878, -87.63557243)"
315,Roosevelt & Clark,41.86723861,-87.63060611,0,1,"(41.86723861, -87.63060611)"
316,Roosevelt & State,41.86728699,-87.62711056,0,1,"(41.86728699, -87.62711056)"
318,Roosevelt & Michigan,41.867333,-87.624345,0,1,"(41.867333, -87.624345)"
326,327 W Roosevelt,41.86741626,-87.6355436,0,1,"(41.86741626, -87.6355436)"
327,Roosevelt & Canal,41.86740019,-87.63905542,0,1,"(41.86740019, -87.63905542)"
328,Roosevelt & Clinton,41.86735198,-87.64057609,0,1,"(41.86735198, -87.64057609)"
329,Roosevelt & Jefferson,41.86732793,-87.64204071,0,1,"(41.86732793, -87.64204071)"
332,900 W Roosevelt,41.86721921,-87.64943144,0,1,"(41.86721921, -87.64943144)"
333,Roosevelt & Morgan,41.86718872,-87.65089349,0,1,"(41.86718872, -87.65089349)"
334,Roosevelt & Blue Island,41.8671672,-87.65307965,0,1,"(41.8671672, -87.65307965)"
335,Roosevelt & May,41.86711341,-87.65499111,0,1,"(41.86711341, -87.65499111)"
336,Roosevelt & Racine,41.86710533,-87.65651505,0,1,"(41.86710533, -87.65651505)"
337,Roosevelt & Throop,41.86706609,-87.65903469,0,1,"(41.86706609, -87.65903469)"
340,Roosevelt & Ashland,41.86695091,-87.66619588,0,1,"(41.86695091, -87.66619588)"
341,Roosevelt & Paulina,41.86702876,-87.66879274,0,1,"(41.86702876, -87.66879274)"
342,Roosevelt & Wood,41.86700369,-87.67112322,0,1,"(41.86700369, -87.67112322)"
343,Roosevelt & Wolcott,41.86695936,-87.67353822,0,1,"(41.86695936, -87.67353822)"
344,Roosevelt & Damen,41.86693534,-87.67595278,0,1,"(41.86693534, -87.67595278)"
348,Roosevelt & Western,41.86671595,-87.68585449,0,1,"(41.86671595, -87.68585449)"
349,Roosevelt & Campbell,41.86668409,-87.68877572,0,1,"(41.86668409, -87.68877572)"
350,Roosevelt & Talman,41.86659701,-87.692167,0,1,"(41.86659701, -87.692167)"
351,Roosevelt & Washtenaw,41.86663483,-87.6933021,0,1,"(41.86663483, -87.6933021)"
353,Roosevelt & Francisco,41.86656508,-87.69825112,0,1,"(41.86656508, -87.69825112)"
354,Roosevelt & Sacramento,41.86653975,-87.70064598,0,1,"(41.86653975, -87.70064598)"
355,Roosevelt & Albany,41.86651191,-87.70314478,0,1,"(41.86651191, -87.70314478)"
356,Roosevelt & Kedzie,41.86650058,-87.70540269,0,1,"(41.86650058, -87.70540269)"
357,Roosevelt & Spaulding,41.86644971,-87.70792594,0,1,"(41.86644971, -87.70792594)"
358,Roosevelt & Homan,41.86641794,-87.71026976,0,1,"(41.86641794, -87.71026976)"
359,Roosevelt & St. Louis,41.86640459,-87.71287363,0,1,"(41.86640459, -87.71287363)"
361,Roosevelt & Lawndale,41.86634534,-87.71776518,0,1,"(41.86634534, -87.71776518)"
362,Roosevelt & Independence,41.86632553,-87.71938526,0,1,"(41.86632553, -87.71938526)"
364,Roosevelt & Springfield,41.86628473,-87.72265925,0,1,"(41.86628473, -87.72265925)"
365,Roosevelt & Pulaski,41.86625401,-87.72504075,0,1,"(41.86625401, -87.72504075)"
366,Roosevelt & Karlov,41.86620917,-87.72754305,0,1,"(41.86620917, -87.72754305)"
367,Roosevelt & Keeler,41.86618436,-87.72995235,0,1,"(41.86618436, -87.72995235)"
368,Roosevelt & Kildare,41.86612304,-87.73235721,0,1,"(41.86612304, -87.73235721)"
369,Roosevelt & Kostner,41.86610406,-87.73479765,0,1,"(41.86610406, -87.73479765)"
370,Roosevelt & Kilbourn,41.86606861,-87.73720243,0,1,"(41.86606861, -87.73720243)"
373,Roosevelt & 47th Avenue,41.86601816,-87.7422535,0,1,"(41.86601816, -87.7422535)"
375,Roosevelt & 49th Avenue,41.86593304,-87.74702963,0,1,"(41.86593304, -87.74702963)"
376,Roosevelt & 50th Avenue,41.86590245,-87.74946275,0,1,"(41.86590245, -87.74946275)"
377,Roosevelt & 51st Avenue,41.86584906,-87.75203042,0,1,"(41.86584906, -87.75203042)"
379,5300 W Roosevelt,41.86581474,-87.7570127,0,1,"(41.86581474, -87.7570127)"
380,Roosevelt & 54th Avenue,41.86576771,-87.75926107,0,1,"(41.86576771, -87.75926107)"
381,5500 W Roosevelt,41.86571503,-87.7620988,0,1,"(41.86571503, -87.7620988)"
382,Roosevelt & Central,41.86566632,-87.76416931,0,1,"(41.86566632, -87.76416931)"
386,Madison & Austin Terminal,41.880313,-87.774043,0,1,"(41.880313, -87.774043)"
388,Madison & Mayfield,41.88000915,-87.7714723,0,1,"(41.88000915, -87.7714723)"
389,Madison & Menard,41.88008776,-87.76992191,0,1,"(41.88008776, -87.76992191)"
390,Madison & Waller,41.88010476,-87.76821491,0,1,"(41.88010476, -87.76821491)"
391,Madison & Parkside,41.88014676,-87.76661691,0,1,"(41.88014676, -87.76661691)"
393,Madison & Pine,41.88018349,-87.7632177,0,1,"(41.88018349, -87.7632177)"
394,Madison & Lotus,41.88020276,-87.76191891,0,1,"(41.88020276, -87.76191891)"
395,Madison & Long,41.88019981,-87.75996715,0,1,"(41.88019981, -87.75996715)"
396,Madison & Lockwood,41.88025187,-87.75778965,0,1,"(41.88025187, -87.75778965)"
397,Madison & Laramie,41.88027,-87.75526,0,1,"(41.88027, -87.75526)"
402,Madison & Kilpatrick,41.880443,-87.742998,0,1,"(41.880443, -87.742998)"
403,Madison & Kenton,41.880475,-87.740705,0,1,"(41.880475, -87.740705)"
406,Madison & Kildare,41.88053063,-87.7331241,0,1,"(41.88053063, -87.7331241)"
409,Madison & Pulaski,41.88061422,-87.72582347,0,1,"(41.88061422, -87.72582347)"
410,Madison & Springfield,41.880697,-87.723388,0,1,"(41.880697, -87.723388)"
412,Madison & Central Park,41.8808072,-87.7159745,0,1,"(41.8808072, -87.7159745)"
413,Madison & St. Louis,41.88081388,-87.71381964,0,1,"(41.88081388, -87.71381964)"
415,Madison & Spaulding,41.880887,-87.708722,0,1,"(41.880887, -87.708722)"
416,Madison & Kedzie,41.880902,-87.706333,0,1,"(41.880902, -87.706333)"
417,Madison & Albany,41.880952,-87.703147,0,1,"(41.880952, -87.703147)"
420,Madison & California,41.88100858,-87.69600765,0,1,"(41.88100858, -87.69600765)"
421,Madison & Washtenaw,41.88103245,-87.694048,0,1,"(41.88103245, -87.694048)"
423,Madison & Campbell,41.88106252,-87.68897646,0,1,"(41.88106252, -87.68897646)"
425,Madison & Oakley,41.88112797,-87.68410996,0,1,"(41.88112797, -87.68410996)"
427,Madison & Hoyne,41.881232,-87.679293,0,1,"(41.881232, -87.679293)"
428,Madison & Damen,41.881262,-87.67685,0,1,"(41.881262, -87.67685)"
429,Madison & United Center (1900 W),41.88129674,-87.67424663,0,1,"(41.88129674, -87.67424663)"
430,Madison & Wood,41.8813284,-87.67186305,0,1,"(41.8813284, -87.67186305)"
431,Madison & Paulina,41.88137,-87.669513,0,1,"(41.88137, -87.669513)"
432,Madison & Ashland,41.88139461,-87.66699977,0,1,"(41.88139461, -87.66699977)"
435,Madison & Throop,41.881525,-87.659765,0,1,"(41.881525, -87.659765)"
436,Madison & Racine,41.881545,-87.657333,0,1,"(41.881545, -87.657333)"
437,Madison & Aberdeen,41.881608,-87.654897,0,1,"(41.881608, -87.654897)"
439,Madison & Peoria,41.88167775,-87.64983775,0,1,"(41.88167775, -87.64983775)"
440,Halsted & Madison,41.882,-87.64728,0,1,"(41.882, -87.64728)"
442,Washington & Jefferson,41.88311,-87.642848,0,1,"(41.88311, -87.642848)"
443,Washington & Canal,41.883084,-87.639976,0,1,"(41.883084, -87.639976)"
445,Washington & Franklin,41.883128,-87.635516,0,1,"(41.883128, -87.635516)"
446,Washington & Lasalle,41.883137,-87.632625,0,1,"(41.883137, -87.632625)"
447,Washington & Dearborn,41.883145,-87.629611,0,1,"(41.883145, -87.629611)"
448,Washington & State,41.88316957,-87.62749695,0,1,"(41.88316957, -87.62749695)"
449,Washington & Wabash,41.883159,-87.625966,0,1,"(41.883159, -87.625966)"
450,Madison & Wabash,41.88214,-87.625973,0,1,"(41.88214, -87.625973)"
452,Madison & Clark,41.882042,-87.630679,0,1,"(41.882042, -87.630679)"
453,Madison & Wells,41.8820052,-87.63408179,0,1,"(41.8820052, -87.63408179)"
454,Madison & N. Wacker,41.88196914,-87.63744347,0,1,"(41.88196914, -87.63744347)"
455,Madison & Clinton,41.88194735,-87.64104342,0,1,"(41.88194735, -87.64104342)"
456,Madison & Jefferson,41.88191463,-87.64283539,0,1,"(41.88191463, -87.64283539)"
458,Madison & Peoria,41.8818,-87.649477,0,1,"(41.8818, -87.649477)"
459,Madison & Morgan,41.881767,-87.651833,0,1,"(41.881767, -87.651833)"
460,Madison & Aberdeen,41.881722,-87.654195,0,1,"(41.881722, -87.654195)"
461,Madison & Racine,41.8817,-87.65653,0,1,"(41.8817, -87.65653)"
462,Madison & Throop,41.88164,-87.659483,0,1,"(41.88164, -87.659483)"
463,Madison & Loomis,41.881587,-87.66204,0,1,"(41.881587, -87.66204)"
464,Madison & Laflin,41.881548,-87.66449,0,1,"(41.881548, -87.66449)"
465,Madison & Ashland,41.881523,-87.666567,0,1,"(41.881523, -87.666567)"
466,Madison & Paulina,41.88149,-87.669113,0,1,"(41.88149, -87.669113)"
468,Madison & United Center (1900 W),41.88141872,-87.67423738,0,1,"(41.88141872, -87.67423738)"
469,Madison & Damen,41.881398,-87.676448,0,1,"(41.881398, -87.676448)"
470,Madison & Hoyne,41.881337,-87.678923,0,1,"(41.881337, -87.678923)"
473,Madison & Western,41.881235,-87.686193,0,1,"(41.881235, -87.686193)"
478,Madison & Francisco,41.881103,-87.698552,0,1,"(41.881103, -87.698552)"
479,Madison & Sacramento,41.881088,-87.701062,0,1,"(41.881088, -87.701062)"
480,Madison & Albany,41.881052,-87.703457,0,1,"(41.881052, -87.703457)"
482,Madison & Spaulding,41.880992,-87.708572,0,1,"(41.880992, -87.708572)"
484,Madison & St. Louis,41.880943,-87.713772,0,1,"(41.880943, -87.713772)"
485,Madison & Central Park,41.88092565,-87.71581962,0,1,"(41.88092565, -87.71581962)"
486,Madison & Hamlin,41.88086554,-87.72097816,0,1,"(41.88086554, -87.72097816)"
487,Madison & Springfield,41.88080561,-87.7231035,0,1,"(41.88080561, -87.7231035)"
494,Madison & Kenton,41.88065,-87.740598,0,1,"(41.88065, -87.740598)"
495,Madison & Kilpatrick,41.880632,-87.74259,0,1,"(41.880632, -87.74259)"
496,Madison & Cicero,41.88060934,-87.74512281,0,1,"(41.88060934, -87.74512281)"
497,Madison & Lamon,41.88057059,-87.7475185,0,1,"(41.88057059, -87.7475185)"
498,Madison & Lavergne,41.88055203,-87.7500388,0,1,"(41.88055203, -87.7500388)"
499,Madison & Leclaire,41.8804935,-87.75246236,0,1,"(41.8804935, -87.75246236)"
502,Madison & Long,41.88041111,-87.75996398,0,1,"(41.88041111, -87.75996398)"
505,Madison & Central,41.88035703,-87.76469173,0,1,"(41.88035703, -87.76469173)"
506,Madison & Parkside,41.88031057,-87.76638886,0,1,"(41.88031057, -87.76638886)"
507,Madison & Waller,41.88028356,-87.76803586,0,1,"(41.88028356, -87.76803586)"
508,Madison & Menard,41.88026556,-87.76966086,0,1,"(41.88026556, -87.76966086)"
509,Madison & Mayfield,41.88022656,-87.77166101,0,1,"(41.88022656, -87.77166101)"
510,Chicago & Austin Terminal,41.89492553,-87.77484321,0,1,"(41.89492553, -87.77484321)"
511,Chicago & Mayfield,41.894698,-87.772404,0,1,"(41.894698, -87.772404)"
512,Chicago & Menard,41.894724,-87.770295,0,1,"(41.894724, -87.770295)"
513,Chicago & Waller,41.894753,-87.768005,0,1,"(41.894753, -87.768005)"
515,Chicago & Central,41.89479043,-87.76552392,0,1,"(41.89479043, -87.76552392)"
516,Chicago & Pine,41.894813,-87.763681,0,1,"(41.894813, -87.763681)"
518,Chicago & Lockwood,41.894857,-87.758152,0,1,"(41.894857, -87.758152)"
520,Chicago & Leclaire,41.894892,-87.75325,0,1,"(41.894892, -87.75325)"
522,Chicago & Lamon,41.89491691,-87.74830576,0,1,"(41.89491691, -87.74830576)"
523,Chicago & Cicero,41.89490567,-87.7459369,0,1,"(41.89490567, -87.7459369)"
524,Chicago & Kilpatrick,41.89497791,-87.74357476,0,1,"(41.89497791, -87.74357476)"
525,Chicago & Kilbourn,41.8950662,-87.73839753,0,1,"(41.8950662, -87.73839753)"
527,Chicago & Kildare,41.89515935,-87.73356209,0,1,"(41.89515935, -87.73356209)"
528,Chicago & Keeler,41.89518019,-87.73103742,0,1,"(41.89518019, -87.73103742)"
529,Chicago & Karlov,41.89523069,-87.72859928,0,1,"(41.89523069, -87.72859928)"
530,Chicago & Pulaski,41.8952897,-87.72621079,0,1,"(41.8952897, -87.72621079)"
531,Chicago & Springfield,41.89535017,-87.72370372,0,1,"(41.89535017, -87.72370372)"
535,Chicago & St. Louis,41.89540605,-87.71398324,0,1,"(41.89540605, -87.71398324)"
537,Chicago & Spaulding,41.89540903,-87.70906101,0,1,"(41.89540903, -87.70906101)"
538,Chicago & Kedzie,41.89547423,-87.70669089,0,1,"(41.89547423, -87.70669089)"
540,Chicago & Sacramento,41.89551445,-87.70255697,0,1,"(41.89551445, -87.70255697)"
543,Chicago & Grand,41.89555954,-87.69911652,0,1,"(41.89555954, -87.69911652)"
544,Chicago & California,41.89557304,-87.69680625,0,1,"(41.89557304, -87.69680625)"
545,Chicago & Washtenaw,41.89559143,-87.69435573,0,1,"(41.89559143, -87.69435573)"
547,Chicago & Campbell,41.89562813,-87.68941398,0,1,"(41.89562813, -87.68941398)"
548,Chicago & Western,41.89566223,-87.68701853,0,1,"(41.89566223, -87.68701853)"
550,Chicago & Leavitt,41.89574859,-87.68206956,0,1,"(41.89574859, -87.68206956)"
551,Chicago & Hoyne,41.89578741,-87.67959733,0,1,"(41.89578741, -87.67959733)"
552,Chicago & Damen,41.89583078,-87.67719168,0,1,"(41.89583078, -87.67719168)"
553,Chicago & Wolcott,41.89587004,-87.67474255,0,1,"(41.89587004, -87.67474255)"
556,Chicago & Ashland,41.89599305,-87.6674741,0,1,"(41.89599305, -87.6674741)"
557,Chicago & Bishop,41.89604414,-87.66414584,0,1,"(41.89604414, -87.66414584)"
559,Chicago & Elizabeth,41.89612172,-87.65956047,0,1,"(41.89612172, -87.65956047)"
561,Chicago & Milwaukee,41.89619683,-87.65554311,0,1,"(41.89619683, -87.65554311)"
562,Chicago & Ogden,41.89621694,-87.6543091,0,1,"(41.89621694, -87.6543091)"
563,Chicago & Sangamon,41.89626756,-87.65126255,0,1,"(41.89626756, -87.65126255)"
565,Chicago & Halsted,41.89628954,-87.64726282,0,1,"(41.89628954, -87.64726282)"
566,700 W Chicago,41.89634208,-87.64618838,0,1,"(41.89634208, -87.64618838)"
567,Chicago & Larrabee,41.89638809,-87.64273373,0,1,"(41.89638809, -87.64273373)"
569,Chicago & Hudson,41.89641589,-87.64021797,0,1,"(41.89641589, -87.64021797)"
571,Chicago & Orleans,41.89644872,-87.63735212,0,1,"(41.89644872, -87.63735212)"
572,Chicago & Franklin (Brown line),41.89647376,-87.63591236,0,1,"(41.89647376, -87.63591236)"
574,Chicago & LaSalle,41.89651769,-87.63295213,0,1,"(41.89651769, -87.63295213)"
575,Chicago & Clark,41.89653382,-87.63136267,0,1,"(41.89653382, -87.63136267)"
576,Chicago & Dearborn,41.89658592,-87.62992506,0,1,"(41.89658592, -87.62992506)"
577,Chicago & State (Red Line),41.89660686,-87.62838543,0,1,"(41.89660686, -87.62838543)"
578,Chicago & Wabash,41.89662108,-87.62698841,0,1,"(41.89662108, -87.62698841)"
579,Chicago & Rush,41.8966447,-87.62567065,0,1,"(41.8966447, -87.62567065)"
580,Chicago & Michigan,41.89666084,-87.6245301,0,1,"(41.89666084, -87.6245301)"
582,Chicago & Fairbanks,41.896716,-87.62053,0,1,"(41.896716, -87.62053)"
584,Fairbanks & Huron,41.895127,-87.620375,0,1,"(41.895127, -87.620375)"
585,Fairbanks & Erie,41.894321,-87.620356,0,1,"(41.894321, -87.620356)"
587,Fairbanks & Ohio,41.89234,-87.62038,0,1,"(41.89234, -87.62038)"
589,Grand & McClurg,41.89191794,-87.61798436,0,1,"(41.89191794, -87.61798436)"
590,Grand & Fairbanks/Columbus,41.891862,-87.620009,0,1,"(41.891862, -87.620009)"
591,Fairbanks & Ohio,41.892461,-87.620117,0,1,"(41.892461, -87.620117)"
593,Fairbanks & Erie,41.894081,-87.620224,0,1,"(41.894081, -87.620224)"
594,Fairbanks & Huron,41.894886,-87.620252,0,1,"(41.894886, -87.620252)"
596,Fairbanks & Chicago,41.896645,-87.620311,0,1,"(41.896645, -87.620311)"
597,Chicago & Mies Van Der Rohe,41.89683816,-87.62170867,0,1,"(41.89683816, -87.62170867)"
599,Chicago & Michigan,41.89680037,-87.62449336,0,1,"(41.89680037, -87.62449336)"
600,Chicago & Wabash,41.89676304,-87.62670344,0,1,"(41.89676304, -87.62670344)"
601,Chicago & State (Red Line),41.89674104,-87.62802244,0,1,"(41.89674104, -87.62802244)"
602,Chicago & Dearborn,41.89671904,-87.62960444,0,1,"(41.89671904, -87.62960444)"
603,Chicago & Clark,41.89669704,-87.63105944,0,1,"(41.89669704, -87.63105944)"
606,Chicago & Franklin (Brown line),41.89666896,-87.63553437,0,1,"(41.89666896, -87.63553437)"
609,Chicago & Hudson,41.89661268,-87.63976119,0,1,"(41.89661268, -87.63976119)"
611,Chicago & Larrabee,41.8965778,-87.64260977,0,1,"(41.8965778, -87.64260977)"
612,700 W Chicago,41.89649698,-87.64615091,0,1,"(41.89649698, -87.64615091)"
613,Chicago & Halsted,41.89651,-87.64817713,0,1,"(41.89651, -87.64817713)"
615,Chicago & Sangamon,41.89639185,-87.65170798,0,1,"(41.89639185, -87.65170798)"
617,Chicago Blue Line Station,41.89635265,-87.65510772,0,1,"(41.89635265, -87.65510772)"
618,Chicago & Racine,41.89630868,-87.6573982,0,1,"(41.89630868, -87.6573982)"
620,Chicago & Noble,41.89622854,-87.6622701,0,1,"(41.89622854, -87.6622701)"
621,Chicago & Greenview,41.896197,-87.664691,0,1,"(41.896197, -87.664691)"
622,Chicago & Ashland,41.89615141,-87.66707916,0,1,"(41.89615141, -87.66707916)"
623,Chicago & Paulina,41.89611357,-87.66955486,0,1,"(41.89611357, -87.66955486)"
625,Chicago & Wolcott,41.89603074,-87.67449,0,1,"(41.89603074, -87.67449)"
629,Chicago & Oakley,41.89586527,-87.68422742,0,1,"(41.89586527, -87.68422742)"
631,Chicago & Campbell,41.89579646,-87.68915823,0,1,"(41.89579646, -87.68915823)"
633,Chicago & Washtenaw,41.89574952,-87.69415782,0,1,"(41.89574952, -87.69415782)"
636,Chicago & Grand,41.89570621,-87.6997458,0,1,"(41.89570621, -87.6997458)"
638,Chicago & Sacramento,41.89566659,-87.70264143,0,1,"(41.89566659, -87.70264143)"
641,Chicago & Spaulding,41.89561076,-87.70876153,0,1,"(41.89561076, -87.70876153)"
643,Chicago & St. Louis,41.89556198,-87.71376324,0,1,"(41.89556198, -87.71376324)"
644,Chicago & Central Park,41.89554001,-87.71620529,0,1,"(41.89554001, -87.71620529)"
647,Chicago & Springfield,41.8954873,-87.72350073,0,1,"(41.8954873, -87.72350073)"
648,Chicago & Pulaski,41.89544463,-87.72590117,0,1,"(41.89544463, -87.72590117)"
649,Chicago & Karlov,41.89537799,-87.72842914,0,1,"(41.89537799, -87.72842914)"
650,Chicago & Keeler,41.89535402,-87.73090378,0,1,"(41.89535402, -87.73090378)"
651,Chicago & Kildare,41.89531292,-87.73334867,0,1,"(41.89531292, -87.73334867)"
653,Chicago & Kilbourn,41.89522016,-87.73829914,0,1,"(41.89522016, -87.73829914)"
654,Chicago & Kilpatrick,41.89513012,-87.74341428,0,1,"(41.89513012, -87.74341428)"
656,Chicago & Lamon,41.89504996,-87.74809044,0,1,"(41.89504996, -87.74809044)"
658,Chicago & Leclaire,41.89503504,-87.75309924,0,1,"(41.89503504, -87.75309924)"
660,Chicago & Lockwood,41.89500135,-87.75796488,0,1,"(41.89500135, -87.75796488)"
662,Chicago & Pine,41.89489933,-87.76346107,0,1,"(41.89489933, -87.76346107)"
663,Chicago & Central,41.89493013,-87.76526378,0,1,"(41.89493013, -87.76526378)"
665,Chicago & Waller,41.89489832,-87.76766308,0,1,"(41.89489832, -87.76766308)"
667,Chicago & Mayfield,41.89483319,-87.77203704,0,1,"(41.89483319, -87.77203704)"
668,Grand & Nordica Terminal,41.92385192,-87.80198609,0,1,"(41.92385192, -87.80198609)"
669,Grand & Sayre,41.923497,-87.800851,0,1,"(41.923497, -87.800851)"
670,Grand & Newland,41.923512,-87.799018,0,1,"(41.923512, -87.799018)"
671,Grand & Newcastle,41.923526,-87.797189,0,1,"(41.923526, -87.797189)"
672,Grand & Oak Park,41.92351819,-87.79541381,0,1,"(41.92351819, -87.79541381)"
677,Grand & Mobile,41.921863,-87.78306,0,1,"(41.921863, -87.78306)"
680,Grand & Austin,41.920491,-87.775713,0,1,"(41.920491, -87.775713)"
681,Grand & Marmora,41.92006352,-87.77325642,0,1,"(41.92006352, -87.77325642)"
683,Grand & Major,41.91916419,-87.76835011,0,1,"(41.91916419, -87.76835011)"
685,5500 W Grand,41.91821404,-87.763198,0,1,"(41.91821404, -87.763198)"
686,Grand & Long,41.91780507,-87.7609681,0,1,"(41.91780507, -87.7609681)"
688,Grand & Latrobe,41.91719472,-87.75765066,0,1,"(41.91719472, -87.75765066)"
689,Grand & Laramie,41.91689396,-87.75608873,0,1,"(41.91689396, -87.75608873)"
690,Grand & Leclaire/Armitage,41.91678384,-87.75351536,0,1,"(41.91678384, -87.75351536)"
691,Grand & Lamon,41.91522393,-87.74945624,0,1,"(41.91522393, -87.74945624)"
692,Grand & Cicero,41.91389023,-87.74616164,0,1,"(41.91389023, -87.74616164)"
693,Grand & Kilpatrick,41.91292677,-87.74365725,0,1,"(41.91292677, -87.74365725)"
694,Grand & Kenton,41.91166747,-87.74053319,0,1,"(41.91166747, -87.74053319)"
695,Grand & Kilbourn,41.910966,-87.738711,0,1,"(41.910966, -87.738711)"
696,Grand & Kostner,41.910036,-87.736361,0,1,"(41.910036, -87.736361)"
698,Grand & Kildare,41.909106,-87.733994,0,1,"(41.909106, -87.733994)"
700,Grand & Karlov,41.907083,-87.728996,0,1,"(41.907083, -87.728996)"
702,Grand & Springfield,41.90514637,-87.72412498,0,1,"(41.90514637, -87.72412498)"
703,Grand & Hamlin,41.90418821,-87.72159442,0,1,"(41.90418821, -87.72159442)"
704,Grand & Lawndale,41.90342981,-87.71961797,0,1,"(41.90342981, -87.71961797)"
707,Grand & Drake,41.901571,-87.715107,0,1,"(41.901571, -87.715107)"
708,Grand & Thomas,41.9010388,-87.71368713,0,1,"(41.9010388, -87.71368713)"
709,Grand & Homan,41.90011134,-87.71207511,0,1,"(41.90011134, -87.71207511)"
710,Grand & Augusta,41.89939914,-87.70957967,0,1,"(41.89939914, -87.70957967)"
712,Grand & Albany,41.89730851,-87.70428253,0,1,"(41.89730851, -87.70428253)"
713,Grand & Sacramento,41.89664206,-87.70264029,0,1,"(41.89664206, -87.70264029)"
714,Grand & Sacramento Blvd.,41.89639889,-87.70204875,0,1,"(41.89639889, -87.70204875)"
715,Grand & Chicago,41.89579281,-87.70052166,0,1,"(41.89579281, -87.70052166)"
716,Grand & California,41.894255,-87.696723,0,1,"(41.894255, -87.696723)"
717,Grand & Washtenaw,41.893283,-87.694255,0,1,"(41.893283, -87.694255)"
718,Grand & Talman,41.892725,-87.692892,0,1,"(41.892725, -87.692892)"
719,Grand & Rockwell,41.892279,-87.691763,0,1,"(41.892279, -87.691763)"
720,Grand & Campbell,41.89130844,-87.68928255,0,1,"(41.89130844, -87.68928255)"
721,Grand & Western,41.89056857,-87.68684427,0,1,"(41.89056857, -87.68684427)"
722,Grand & Oakley,41.89062906,-87.68437029,0,1,"(41.89062906, -87.68437029)"
723,Grand & Leavitt,41.89069201,-87.68178907,0,1,"(41.89069201, -87.68178907)"
724,Grand & Hoyne,41.89070032,-87.67950809,0,1,"(41.89070032, -87.67950809)"
725,Grand & Damen,41.89075979,-87.67702072,0,1,"(41.89075979, -87.67702072)"
726,Grand & Wolcott,41.89080579,-87.67457572,0,1,"(41.89080579, -87.67457572)"
727,Grand & Wood,41.89084079,-87.67214172,0,1,"(41.89084079, -87.67214172)"
728,Grand & Paulina,41.89087679,-87.66971472,0,1,"(41.89087679, -87.66971472)"
729,Grand & Ashland,41.89090348,-87.66731116,0,1,"(41.89090348, -87.66731116)"
730,Grand & Armour,41.89091653,-87.6655934,0,1,"(41.89091653, -87.6655934)"
731,Grand & Noble,41.89095853,-87.6623424,0,1,"(41.89095853, -87.6623424)"
735,Grand & Aberdeen,41.89102866,-87.65473053,0,1,"(41.89102866, -87.65473053)"
736,Grand & Morgan,41.8910588,-87.6524239,0,1,"(41.8910588, -87.6524239)"
737,Grand & Peoria,41.8910884,-87.64984684,0,1,"(41.8910884, -87.64984684)"
738,Grand & Halsted/Milwaukee (Blue Line),41.89111519,-87.64777715,0,1,"(41.89111519, -87.64777715)"
739,Grand & Union,41.8911144,-87.64588684,0,1,"(41.8911144, -87.64588684)"
741,530 W Grand,41.89118338,-87.6431013,0,1,"(41.89118338, -87.6431013)"
742,Grand & Kingsbury,41.89142739,-87.63996748,0,1,"(41.89142739, -87.63996748)"
743,Grand & Orleans,41.89147038,-87.63716348,0,1,"(41.89147038, -87.63716348)"
744,Grand & Franklin,41.89150738,-87.63563348,0,1,"(41.89150738, -87.63563348)"
745,Grand & Wells,41.89151114,-87.63419927,0,1,"(41.89151114, -87.63419927)"
746,Illinois & LaSalle,41.890737,-87.632811,0,1,"(41.890737, -87.632811)"
747,Illinois & Clark,41.890758,-87.631279,0,1,"(41.890758, -87.631279)"
750,Illinois & Rush,41.890866,-87.625502,0,1,"(41.890866, -87.625502)"
751,Illinois (Lower) & Michigan,41.89088105,-87.62432598,0,1,"(41.89088105, -87.62432598)"
754,Illinois & McClurg,41.891002,-87.61786,0,1,"(41.891002, -87.61786)"
755,Illinois & Peshtigo,41.891042,-87.615376,0,1,"(41.891042, -87.615376)"
756,Illinois & Lake Shore,41.89102512,-87.61314762,0,1,"(41.89102512, -87.61314762)"
758,Navy Pier Terminal,41.89233194,-87.60999416,0,1,"(41.89233194, -87.60999416)"
759,Grand & Streeter,41.892011,-87.612125,0,1,"(41.892011, -87.612125)"
760,Grand & Peshtigo,41.891949,-87.615391,0,1,"(41.891949, -87.615391)"
761,Grand & St. Clair,41.891824,-87.622526,0,1,"(41.891824, -87.622526)"
764,Grand & State (Red Line),41.89173615,-87.62790082,0,1,"(41.89173615, -87.62790082)"
765,Grand & Dearborn,41.891714,-87.629467,0,1,"(41.891714, -87.629467)"
766,Grand & Clark,41.891693,-87.630945,0,1,"(41.891693, -87.630945)"
769,Grand & Franklin,41.89166494,-87.63546111,0,1,"(41.89166494, -87.63546111)"
771,Grand & Kingsbury,41.891579,-87.639757,0,1,"(41.891579, -87.639757)"
772,530 W Grand,41.891332,-87.642789,0,1,"(41.891332, -87.642789)"
776,Grand & Peoria,41.89123692,-87.64985452,0,1,"(41.89123692, -87.64985452)"
778,Grand & Aberdeen,41.89119057,-87.65449965,0,1,"(41.89119057, -87.65449965)"
780,Grand & Racine,41.8911595,-87.65725745,0,1,"(41.8911595, -87.65725745)"
781,Grand & Ogden,41.89114825,-87.65868696,0,1,"(41.89114825, -87.65868696)"
782,Grand & Noble,41.89108116,-87.6620999,0,1,"(41.89108116, -87.6620999)"
783,Grand & Armour,41.89108142,-87.66540595,0,1,"(41.89108142, -87.66540595)"
784,Grand & Ashland,41.8910639,-87.66695867,0,1,"(41.8910639, -87.66695867)"
785,Grand & Paulina,41.89101802,-87.66947781,0,1,"(41.89101802, -87.66947781)"
786,Grand & Wood,41.8909867,-87.671862,0,1,"(41.8909867, -87.671862)"
787,Grand & Wolcott,41.89094784,-87.67435353,0,1,"(41.89094784, -87.67435353)"
788,Grand & Damen,41.89092435,-87.67672064,0,1,"(41.89092435, -87.67672064)"
789,Grand & Hoyne,41.89086794,-87.67918033,0,1,"(41.89086794, -87.67918033)"
790,Grand & Leavitt,41.89077566,-87.68161052,0,1,"(41.89077566, -87.68161052)"
791,Grand & Oakley,41.8907743,-87.68412951,0,1,"(41.8907743, -87.68412951)"
794,Grand & Rockwell,41.8923868,-87.69160027,0,1,"(41.8923868, -87.69160027)"
795,Grand & Talman,41.89280899,-87.69267042,0,1,"(41.89280899, -87.69267042)"
796,Grand & Washtenaw,41.89340945,-87.69405394,0,1,"(41.89340945, -87.69405394)"
797,Grand & California,41.894236,-87.696239,0,1,"(41.894236, -87.696239)"
798,Grand & Chicago,41.89539181,-87.69907004,0,1,"(41.89539181, -87.69907004)"
799,Grand & Sacramento,41.89645974,-87.7017202,0,1,"(41.89645974, -87.7017202)"
800,Grand & Sacramento,41.89686363,-87.70280055,0,1,"(41.89686363, -87.70280055)"
801,Grand & Albany,41.89727124,-87.70383501,0,1,"(41.89727124, -87.70383501)"
802,Grand & Kedzie,41.89820254,-87.70621812,0,1,"(41.89820254, -87.70621812)"
803,Grand & Augusta,41.89901892,-87.70823409,0,1,"(41.89901892, -87.70823409)"
805,Grand & Thomas,41.90111858,-87.71343823,0,1,"(41.90111858, -87.71343823)"
806,Grand & Drake,41.90181786,-87.71531902,0,1,"(41.90181786, -87.71531902)"
808,Grand & Division,41.90262083,-87.71729954,0,1,"(41.90262083, -87.71729954)"
809,Grand & Lawndale,41.903498,-87.719491,0,1,"(41.903498, -87.719491)"
811,Grand & Springfield,41.90517029,-87.72375684,0,1,"(41.90517029, -87.72375684)"
812,Grand & Pulaski,41.90615975,-87.7262656,0,1,"(41.90615975, -87.7262656)"
813,Grand & Karlov,41.90719452,-87.72875386,0,1,"(41.90719452, -87.72875386)"
814,Grand & Keeler,41.90814822,-87.73121579,0,1,"(41.90814822, -87.73121579)"
815,Grand & Kildare,41.90910115,-87.73364265,0,1,"(41.90910115, -87.73364265)"
817,Grand & Kostner,41.910255,-87.736576,0,1,"(41.910255, -87.736576)"
818,Grand & Kilbourn,41.910992,-87.738444,0,1,"(41.910992, -87.738444)"
819,Grand & Kenton,41.91169701,-87.74017967,0,1,"(41.91169701, -87.74017967)"
820,4700 W Grand,41.91292786,-87.74326523,0,1,"(41.91292786, -87.74326523)"
821,Grand & Cicero,41.91397719,-87.745786,0,1,"(41.91397719, -87.745786)"
822,Grand & Lamon,41.91531404,-87.74919464,0,1,"(41.91531404, -87.74919464)"
823,Grand & Leclaire/Armitage,41.91668751,-87.75281781,0,1,"(41.91668751, -87.75281781)"
826,Grand & Lockwood,41.91743849,-87.75829719,0,1,"(41.91743849, -87.75829719)"
828,5500 W Grand,41.91831551,-87.76308444,0,1,"(41.91831551, -87.76308444)"
829,Grand & Central,41.91894393,-87.7662933,0,1,"(41.91894393, -87.7662933)"
830,Grand & Major,41.91925064,-87.76816211,0,1,"(41.91925064, -87.76816211)"
832,Grand & Marmora,41.92015246,-87.77305811,0,1,"(41.92015246, -87.77305811)"
833,Grand & Austin,41.92061241,-87.77547362,0,1,"(41.92061241, -87.77547362)"
834,Grand & Meade,41.92105671,-87.77797234,0,1,"(41.92105671, -87.77797234)"
836,Grand & Mobile,41.92195267,-87.78287544,0,1,"(41.92195267, -87.78287544)"
837,Grand & Narragansett,41.92266109,-87.78527711,0,1,"(41.92266109, -87.78527711)"
838,Grand & Natchez,41.92327513,-87.78769283,0,1,"(41.92327513, -87.78769283)"
840,Grand & Normandy,41.9236977,-87.79268704,0,1,"(41.9236977, -87.79268704)"
842,Grand & New England,41.9236635,-87.79750551,0,1,"(41.9236635, -87.79750551)"
844,Grand & Sayre,41.92359903,-87.80051574,0,1,"(41.92359903, -87.80051574)"
845,Neva & North Ave,41.909026,-87.80401,0,1,"(41.909026, -87.80401)"
846,North Ave & Forest,41.90883939,-87.80129052,0,1,"(41.90883939, -87.80129052)"
847,North Ave & Kenilworth,41.9089,-87.798103,0,1,"(41.9089, -87.798103)"
848,North Ave & Oak Park,41.90897029,-87.79517032,0,1,"(41.90897029, -87.79517032)"
849,North Ave & Linden,41.90899595,-87.7924506,0,1,"(41.90899595, -87.7924506)"
850,North Ave & East,41.908996,-87.790097,0,1,"(41.908996, -87.790097)"
851,North Ave & Elmwood,41.90900079,-87.78747675,0,1,"(41.90900079, -87.78747675)"
852,North Ave & Narragansett,41.90906273,-87.78510758,0,1,"(41.90906273, -87.78510758)"
854,North Ave & Ridgeland,41.909098,-87.78350492,0,1,"(41.909098, -87.78350492)"
856,North Ave & Lombard,41.90910983,-87.78090532,0,1,"(41.90910983, -87.78090532)"
857,North Ave & Taylor,41.90919299,-87.77820663,0,1,"(41.90919299, -87.77820663)"
860,North Ave & Menard,41.90920726,-87.77086088,0,1,"(41.90920726, -87.77086088)"
861,North Ave & Major,41.90926125,-87.76780492,0,1,"(41.90926125, -87.76780492)"
863,North Ave & Linder,41.909346,-87.763178,0,1,"(41.909346, -87.763178)"
864,North Ave & Long,41.909379,-87.761029,0,1,"(41.909379, -87.761029)"
865,North Ave & Lockwood,41.90941649,-87.75801302,0,1,"(41.90941649, -87.75801302)"
866,North Ave & Laramie,41.90938864,-87.75608529,0,1,"(41.90938864, -87.75608529)"
867,North Ave & Leclaire,41.90943469,-87.75275949,0,1,"(41.90943469, -87.75275949)"
868,North Ave & Lavergne,41.9094542,-87.75114264,0,1,"(41.9094542, -87.75114264)"
870,North Ave & Cicero,41.90951085,-87.74636965,0,1,"(41.90951085, -87.74636965)"
871,North Ave & Kilpatrick,41.90955069,-87.74377559,0,1,"(41.90955069, -87.74377559)"
872,North Ave & Kenton,41.90961619,-87.74041353,0,1,"(41.90961619, -87.74041353)"
873,North Ave & Kilbourn,41.909622,-87.738706,0,1,"(41.909622, -87.738706)"
874,North Ave & Kostner,41.909646,-87.736503,0,1,"(41.909646, -87.736503)"
875,North Ave & Grand,41.909678,-87.734463,0,1,"(41.909678, -87.734463)"
876,North Ave & Keeler,41.9097113,-87.73152517,0,1,"(41.9097113, -87.73152517)"
879,North Ave & Springfield,41.90979921,-87.72423712,0,1,"(41.90979921, -87.72423712)"
880,North Ave & Hamlin,41.90988,-87.721763,0,1,"(41.90988, -87.721763)"
881,North Ave & Lawndale,41.90988037,-87.71936411,0,1,"(41.90988037, -87.71936411)"
882,North Ave & Central Park,41.90992304,-87.71679725,0,1,"(41.90992304, -87.71679725)"
883,North Ave & St. Louis,41.90990846,-87.71452129,0,1,"(41.90990846, -87.71452129)"
885,North Ave & Spaulding,41.90998056,-87.7095756,0,1,"(41.90998056, -87.7095756)"
887,North Ave & Albany,41.91003426,-87.70475033,0,1,"(41.91003426, -87.70475033)"
888,North Ave & Humboldt,41.91006308,-87.70200542,0,1,"(41.91006308, -87.70200542)"
889,North Ave & Francisco,41.91009545,-87.69892567,0,1,"(41.91009545, -87.69892567)"
890,North Ave & California,41.91011374,-87.6972235,0,1,"(41.91011374, -87.6972235)"
891,North Ave & Washtenaw,41.91018316,-87.69463648,0,1,"(41.91018316, -87.69463648)"
893,North Ave & Campbell,41.91022365,-87.68975556,0,1,"(41.91022365, -87.68975556)"
894,North Ave & Western,41.91020502,-87.68743416,0,1,"(41.91020502, -87.68743416)"
895,North Ave & Oakley,41.91028665,-87.68485656,0,1,"(41.91028665, -87.68485656)"
896,North Ave & Leavitt,41.91032665,-87.68242156,0,1,"(41.91032665, -87.68242156)"
897,North Ave & Hoyne,41.91035414,-87.68003978,0,1,"(41.91035414, -87.68003978)"
898,North Ave & Milwaukee/Damen (Blue Line),41.91041332,-87.67767087,0,1,"(41.91041332, -87.67767087)"
899,North Ave & Wolcott,41.91046366,-87.67513397,0,1,"(41.91046366, -87.67513397)"
900,North Ave & Wood,41.91049966,-87.67268097,0,1,"(41.91049966, -87.67268097)"
901,North Ave & Paulina,41.91053566,-87.67024497,0,1,"(41.91053566, -87.67024497)"
902,North Ave & Ashland,41.91055657,-87.66787773,0,1,"(41.91055657, -87.66787773)"
903,North Ave & Bosworth,41.9105698,-87.6662869,0,1,"(41.9105698, -87.6662869)"
910,North Ave & Sheffield,41.91076826,-87.65314689,0,1,"(41.91076826, -87.65314689)"
913,North Ave & Clybourn/Halsted (Red Line),41.91083785,-87.64897589,0,1,"(41.91083785, -87.64897589)"
915,North Ave & Orchard,41.91090304,-87.64593024,0,1,"(41.91090304, -87.64593024)"
916,North Ave & Larrabee,41.91092214,-87.64362233,0,1,"(41.91092214, -87.64362233)"
917,North Ave & Cleveland,41.91096789,-87.64110808,0,1,"(41.91096789, -87.64110808)"
918,North Ave & Sedgwick (Brown Line),41.91099843,-87.63877757,0,1,"(41.91099843, -87.63877757)"
919,North Ave & North Park,41.91102809,-87.63679062,0,1,"(41.91102809, -87.63679062)"
920,North Ave & Wells,41.91104991,-87.63487391,0,1,"(41.91104991, -87.63487391)"
922,North Ave & Clark,41.91109336,-87.63180968,0,1,"(41.91109336, -87.63180968)"
923,North Ave & Clark Terminal,41.91128,-87.631195,0,1,"(41.91128, -87.631195)"
924,North Ave & Clark,41.9112345,-87.63202175,0,1,"(41.9112345, -87.63202175)"
926,North Ave & Wells,41.91118658,-87.63452737,0,1,"(41.91118658, -87.63452737)"
927,North Ave & Sedgwick (Brown Line),41.91122311,-87.63841909,0,1,"(41.91122311, -87.63841909)"
928,North Ave & Cleveland,41.91119711,-87.64075835,0,1,"(41.91119711, -87.64075835)"
929,North Ave & Larrabee,41.91106838,-87.64383088,0,1,"(41.91106838, -87.64383088)"
933,North Ave & Fremont,41.91094308,-87.65101375,0,1,"(41.91094308, -87.65101375)"
934,North Ave & Sheffield/Kingsbury,41.91086645,-87.65404664,0,1,"(41.91086645, -87.65404664)"
939,North Ave & Bosworth,41.91069722,-87.66624251,0,1,"(41.91069722, -87.66624251)"
941,North Ave & Paulina,41.91068367,-87.67009398,0,1,"(41.91068367, -87.67009398)"
942,North Ave & Wood,41.9106159,-87.67246055,0,1,"(41.9106159, -87.67246055)"
943,North Ave & Wolcott,41.91058066,-87.67509099,0,1,"(41.91058066, -87.67509099)"
944,North Ave & Damen,41.91055826,-87.67733771,0,1,"(41.91055826, -87.67733771)"
946,North Ave & Hoyne,41.91053508,-87.67976026,0,1,"(41.91053508, -87.67976026)"
947,North Ave & Leavitt,41.91049688,-87.6822277,0,1,"(41.91049688, -87.6822277)"
948,North Ave & Oakley,41.91043747,-87.6846273,0,1,"(41.91043747, -87.6846273)"
949,North Ave & Western,41.9103899,-87.68702917,0,1,"(41.9103899, -87.68702917)"
950,North Ave & Campbell,41.91036749,-87.68953036,0,1,"(41.91036749, -87.68953036)"
951,North Ave & Rockwell,41.91037945,-87.69196321,0,1,"(41.91037945, -87.69196321)"
952,North Ave & Washtenaw,41.91037845,-87.69436122,0,1,"(41.91037845, -87.69436122)"
954,North Ave & Francisco,41.91030323,-87.69890875,0,1,"(41.91030323, -87.69890875)"
957,North Ave & Albany,41.91027233,-87.70447182,0,1,"(41.91027233, -87.70447182)"
959,North Ave & Spaulding,41.91018035,-87.70985543,0,1,"(41.91018035, -87.70985543)"
961,North Ave & Drake,41.9101141,-87.71471161,0,1,"(41.9101141, -87.71471161)"
962,North Ave & Central Park,41.91005901,-87.71655544,0,1,"(41.91005901, -87.71655544)"
963,North Ave & Lawndale,41.91009453,-87.71885413,0,1,"(41.91009453, -87.71885413)"
964,North Ave & Hamlin,41.91009652,-87.72125313,0,1,"(41.91009652, -87.72125313)"
965,North Ave & Springfield,41.91002051,-87.72369547,0,1,"(41.91002051, -87.72369547)"
967,North Ave & Karlov,41.90994926,-87.72867425,0,1,"(41.90994926, -87.72867425)"
968,North Ave & Keeler,41.90993395,-87.73110997,0,1,"(41.90993395, -87.73110997)"
971,North Ave & Kostner/Grand,41.909845,-87.736802,0,1,"(41.909845, -87.736802)"
972,North Ave & Kilbourn,41.909819,-87.738383,0,1,"(41.909819, -87.738383)"
973,North Ave & Kenton,41.909795,-87.740453,0,1,"(41.909795, -87.740453)"
974,North Ave & Kilpatrick,41.90976801,-87.74330273,0,1,"(41.90976801, -87.74330273)"
975,North Ave & Cicero,41.90974281,-87.74586122,0,1,"(41.90974281, -87.74586122)"
976,North Ave & Lamon,41.90969035,-87.74909571,0,1,"(41.90969035, -87.74909571)"
977,North Ave & Lavergne,41.90963318,-87.75103776,0,1,"(41.90963318, -87.75103776)"
978,North Ave & Leclaire,41.90964664,-87.75252072,0,1,"(41.90964664, -87.75252072)"
979,North Ave & Laramie,41.90960786,-87.75553081,0,1,"(41.90960786, -87.75553081)"
980,North Ave & Lockwood,41.9095475,-87.75838061,0,1,"(41.9095475, -87.75838061)"
981,North Ave & Long,41.90950919,-87.76039976,0,1,"(41.90950919, -87.76039976)"
984,North Ave & Major,41.90945565,-87.76781369,0,1,"(41.90945565, -87.76781369)"
985,North Ave & Menard,41.90942605,-87.77010369,0,1,"(41.90942605, -87.77010369)"
986,North Ave & Mayfield,41.90939658,-87.77317075,0,1,"(41.90939658, -87.77317075)"
987,North Ave & Austin,41.90936486,-87.77509251,0,1,"(41.90936486, -87.77509251)"
988,North Ave & Meade,41.90929576,-87.77747005,0,1,"(41.90929576, -87.77747005)"
989,North Ave & Melvina,41.90931092,-87.7800039,0,1,"(41.90931092, -87.7800039)"
990,North Ave & Merrimac,41.90927935,-87.7815632,0,1,"(41.90927935, -87.7815632)"
992,North Ave & Narragansett,41.90927192,-87.78440046,0,1,"(41.90927192, -87.78440046)"
993,North Ave & Nagle,41.90922199,-87.78655413,0,1,"(41.90922199, -87.78655413)"
996,North Ave & Natoma,41.9091393,-87.79097193,0,1,"(41.9091393, -87.79097193)"
997,North Ave & Oak Park,41.90910081,-87.79449775,0,1,"(41.90910081, -87.79449775)"
998,North Ave & New England,41.90911634,-87.79710938,0,1,"(41.90911634, -87.79710938)"
999,North Ave & Sayre,41.9090582,-87.80012694,0,1,"(41.9090582, -87.80012694)"
1000,North Ave & Nordica,41.90903838,-87.80199543,0,1,"(41.90903838, -87.80199543)"
1001,North Ave & Neva,41.90900206,-87.80372402,0,1,"(41.90900206, -87.80372402)"
1002,Harlem & North Ave,41.90913797,-87.8056239,0,1,"(41.90913797, -87.8056239)"
1004,Harlem & Wabansia,41.91056188,-87.80570701,0,1,"(41.91056188, -87.80570701)"
1005,Wabansia & Neva,41.910681,-87.804105,0,1,"(41.910681, -87.804105)"
1006,Paulina & Howard Terminal,42.01781213,-87.67306705,0,1,"(42.01781213, -87.67306705)"
1011,Howard & Sheridan,42.01919502,-87.66617692,0,1,"(42.01919502, -87.66617692)"
1012,Sheridan & Birchwood,42.018021,-87.665802,0,1,"(42.018021, -87.665802)"
1014,Sheridan & Jarvis,42.01580068,-87.66511368,0,1,"(42.01580068, -87.66511368)"
1015,Sheridan & Sherwin,42.01482404,-87.66469399,0,1,"(42.01482404, -87.66469399)"
1016,Sheridan & Chase,42.013757,-87.664145,0,1,"(42.013757, -87.664145)"
1017,Sheridan & Touhy,42.012649,-87.663526,0,1,"(42.012649, -87.663526)"
1018,Sheridan & Estes,42.011414,-87.662952,0,1,"(42.011414, -87.662952)"
1019,Sheridan & Greenleaf,42.010216,-87.662563,0,1,"(42.010216, -87.662563)"
1020,Sheridan & Lunt,42.009002,-87.662146,0,1,"(42.009002, -87.662146)"
1021,Sheridan & Morse,42.007777,-87.661749,0,1,"(42.007777, -87.661749)"
1022,Sheridan & Farwell,42.006566,-87.661369,0,1,"(42.006566, -87.661369)"
1023,Sheridan & Pratt,42.005364,-87.660998,0,1,"(42.005364, -87.660998)"
1025,Sheridan & North Shore,42.00334158,-87.66091939,0,1,"(42.00334158, -87.66091939)"
1027,Sheridan & Loyola (Red Line),42.001423,-87.66086,0,1,"(42.001423, -87.66086)"
1028,Sheridan & Arthur,42.000247,-87.660808,0,1,"(42.000247, -87.660808)"
1029,Sheridan & Broadway/Devon,41.99813048,-87.6602255,0,1,"(41.99813048, -87.6602255)"
1030,Sheridan & Winthrop,41.99812068,-87.65844625,0,1,"(41.99812068, -87.65844625)"
1031,Sheridan & Kenmore,41.99816799,-87.65688031,0,1,"(41.99816799, -87.65688031)"
1032,Sheridan & Rosemont,41.996236,-87.655654,0,1,"(41.996236, -87.655654)"
1033,Sheridan & Granville,41.994419,-87.655598,0,1,"(41.994419, -87.655598)"
1034,Sheridan & Glenlake,41.992167,-87.655528,0,1,"(41.992167, -87.655528)"
1035,Sheridan & Thorndale,41.989916,-87.655459,0,1,"(41.989916, -87.655459)"
1036,Sheridan & Ardmore,41.9874587,-87.65537893,0,1,"(41.9874587, -87.65537893)"
1037,Sheridan & Hollywood,41.985339,-87.655319,0,1,"(41.985339, -87.655319)"
1038,Sheridan & Bryn Mawr,41.983481,-87.655246,0,1,"(41.983481, -87.655246)"
1039,Sheridan & Catalpa,41.981684,-87.655222,0,1,"(41.981684, -87.655222)"
1040,Sheridan & Balmoral,41.97978245,-87.65515521,0,1,"(41.97978245, -87.65515521)"
1041,Sheridan & Berwyn,41.97801194,-87.65512909,0,1,"(41.97801194, -87.65512909)"
1042,Sheridan & Foster,41.976213,-87.655069,0,1,"(41.976213, -87.655069)"
1043,Sheridan & Winona,41.975095,-87.655048,0,1,"(41.975095, -87.655048)"
1044,Sheridan & Argyle,41.97312,-87.655001,0,1,"(41.97312, -87.655001)"
1045,Sheridan & Ainslie,41.97143934,-87.65495569,0,1,"(41.97143934, -87.65495569)"
1046,Sheridan & Gunnison,41.96989601,-87.65491457,0,1,"(41.96989601, -87.65491457)"
1047,Sheridan & Lawrence,41.96892765,-87.6548939,0,1,"(41.96892765, -87.6548939)"
1048,Sheridan & Leland,41.967087,-87.654882,0,1,"(41.967087, -87.654882)"
1049,Sheridan & Wilson,41.965246,-87.654858,0,1,"(41.965246, -87.654858)"
1050,Sheridan & Sunnyside,41.963421,-87.654838,0,1,"(41.963421, -87.654838)"
1051,Sheridan & Montrose,41.961858,-87.654802,0,1,"(41.961858, -87.654802)"
1052,Sheridan & Broadway/Montrose,41.96082781,-87.65479357,0,1,"(41.96082781, -87.65479357)"
1053,4242 N Sheridan,41.959341,-87.654718,0,1,"(41.959341, -87.654718)"
1054,Sheridan & Buena,41.958202,-87.65472373,0,1,"(41.958202, -87.65472373)"
1055,Sheridan & Cuyler,41.95562701,-87.65468852,0,1,"(41.95562701, -87.65468852)"
1056,Sheridan & Irving Park,41.95429812,-87.65461109,0,1,"(41.95429812, -87.65461109)"
1057,Sheridan & Sheffield,41.95262497,-87.65416813,0,1,"(41.95262497, -87.65416813)"
1058,Sheridan & Fremont,41.95266247,-87.65173839,0,1,"(41.95266247, -87.65173839)"
1060,Sheridan & Pine Grove,41.95280766,-87.64765892,0,1,"(41.95280766, -87.64765892)"
1061,Lake Shore & Grace,41.95205777,-87.64511379,0,1,"(41.95205777, -87.64511379)"
1062,Lake Shore & Waveland,41.95027763,-87.64454443,0,1,"(41.95027763, -87.64454443)"
1063,Lake Shore & Addison,41.94859077,-87.64343475,0,1,"(41.94859077, -87.64343475)"
1064,Lake Shore & Brompton,41.9475591,-87.6429442,0,1,"(41.9475591, -87.6429442)"
1065,Lake Shore & Cornelia,41.94661853,-87.64237816,0,1,"(41.94661853, -87.64237816)"
1066,Lake Shore & Stratford,41.94597417,-87.64201491,0,1,"(41.94597417, -87.64201491)"
1067,Lake Shore & Hawthorne,41.9446547,-87.64129192,0,1,"(41.9446547, -87.64129192)"
1068,Lake Shore & Roscoe,41.94321611,-87.64057871,0,1,"(41.94321611, -87.64057871)"
1069,Lake Shore & Aldine,41.94211286,-87.63994886,0,1,"(41.94211286, -87.63994886)"
1070,Lake Shore & Melrose,41.94128406,-87.63966994,0,1,"(41.94128406, -87.63966994)"
1072,Sheridan & Briar,41.93857023,-87.63956872,0,1,"(41.93857023, -87.63956872)"
1073,Sheridan & Barry,41.93756538,-87.63953499,0,1,"(41.93756538, -87.63953499)"
1074,Sheridan & Wellington,41.9364246,-87.63950084,0,1,"(41.9364246, -87.63950084)"
1075,Sheridan & Oakdale,41.93538253,-87.63946533,0,1,"(41.93538253, -87.63946533)"
1076,Sheridan & Surf,41.93418628,-87.63942598,0,1,"(41.93418628, -87.63942598)"
1077,Sheridan & Diversey,41.93301547,-87.63939763,0,1,"(41.93301547, -87.63939763)"
1078,Stockton & Wrightwood,41.93130399,-87.63903079,0,1,"(41.93130399, -87.63903079)"
1079,Stockton & Roslyn,41.92829248,-87.63900173,0,1,"(41.92829248, -87.63900173)"
1080,Stockton & Arlington,41.92648805,-87.63777472,0,1,"(41.92648805, -87.63777472)"
1081,Stockton & Fullerton,41.925476,-87.636161,0,1,"(41.925476, -87.636161)"
1082,Stockton & Webster,41.9221161,-87.63580597,0,1,"(41.9221161, -87.63580597)"
1083,Stockton & Dickens,41.92030319,-87.63569104,0,1,"(41.92030319, -87.63569104)"
1084,Stockton & Armitage,41.91879483,-87.63463317,0,1,"(41.91879483, -87.63463317)"
1085,Stockton & Lincoln,41.915739,-87.633084,0,1,"(41.915739, -87.633084)"
1086,Stockton & LaSalle,41.91361529,-87.63185059,0,1,"(41.91361529, -87.63185059)"
1087,Lake Shore & North Ave,41.910497,-87.626317,0,1,"(41.910497, -87.626317)"
1088,Lake Shore & Burton,41.909342,-87.62624,0,1,"(41.909342, -87.62624)"
1089,Lake Shore & Schiller,41.907565,-87.625782,0,1,"(41.907565, -87.625782)"
1090,Lake Shore & Banks,41.906595,-87.625542,0,1,"(41.906595, -87.625542)"
1091,Lake Shore & Goethe,41.905654,-87.62531,0,1,"(41.905654, -87.62531)"
1092,Lake Shore & Scott,41.904702,-87.625148,0,1,"(41.904702, -87.625148)"
1093,Lake Shore & Division,41.903822,-87.625031,0,1,"(41.903822, -87.625031)"
1094,Lake Shore & Elm,41.902974,-87.624752,0,1,"(41.902974, -87.624752)"
1095,Lake Shore & Cedar,41.902225,-87.624513,0,1,"(41.902225, -87.624513)"
1096,Lake Shore & Oak,41.900947,-87.624284,0,1,"(41.900947, -87.624284)"
1097,Michigan & Delaware,41.899345,-87.624246,0,1,"(41.899345, -87.624246)"
1098,Michigan & Pearson,41.897731,-87.624234,0,1,"(41.897731, -87.624234)"
1100,Michigan & Erie,41.894283,-87.624364,0,1,"(41.894283, -87.624364)"
1101,Michigan & Ohio,41.892691,-87.624328,0,1,"(41.892691, -87.624328)"
1102,Michigan & Illinois,41.89103227,-87.6242934,0,1,"(41.89103227, -87.6242934)"
1103,Michigan & Hubbard (Wrigley Bldg.),41.889894,-87.624244,0,1,"(41.889894, -87.624244)"
1104,Michigan & South Water,41.88690443,-87.6246806,0,1,"(41.88690443, -87.6246806)"
1105,Michigan & Lake/Randolph,41.885104,-87.624615,0,1,"(41.885104, -87.624615)"
1106,Michigan & Washington,41.883414,-87.624588,0,1,"(41.883414, -87.624588)"
1107,Michigan & Madison/Monroe,41.881199,-87.624518,0,1,"(41.881199, -87.624518)"
1108,Adams & S. Wacker,41.8794,-87.636542,0,1,"(41.8794, -87.636542)"
1109,Canal & Adams/Jackson,41.878555,-87.639693,0,1,"(41.878555, -87.639693)"
1110,Michigan & Jackson,41.878429,-87.624446,0,1,"(41.878429, -87.624446)"
1111,Congress & Wabash,41.875768,-87.625788,0,1,"(41.875768, -87.625788)"
1113,State & Van Buren,41.87684767,-87.62754254,0,1,"(41.87684767, -87.62754254)"
1115,State & Adams,41.87940141,-87.6276097,0,1,"(41.87940141, -87.6276097)"
1117,State & Madison,41.881925,-87.627675,0,1,"(41.881925, -87.627675)"
1119,Michigan & Randolph,41.88468794,-87.62431755,0,1,"(41.88468794, -87.62431755)"
1120,Michigan & South Water,41.88669974,-87.624384,0,1,"(41.88669974, -87.624384)"
1121,Michigan & E. Wacker,41.888076,-87.624425,0,1,"(41.888076, -87.624425)"
1122,Michigan & Hubbard (Tribune Bldg.),41.890205,-87.623969,0,1,"(41.890205, -87.623969)"
1123,Michigan & Grand,41.891769,-87.624034,0,1,"(41.891769, -87.624034)"
1124,Michigan & Ontario,41.893194,-87.624089,0,1,"(41.893194, -87.624089)"
1125,Michigan & Huron,41.894798,-87.624104,0,1,"(41.894798, -87.624104)"
1126,Michigan & Chicago,41.896535,-87.624133,0,1,"(41.896535, -87.624133)"
1127,Michigan & Chestnut,41.898069,-87.62396,0,1,"(41.898069, -87.62396)"
1128,Michigan & Delaware/Walton,41.899435,-87.624004,0,1,"(41.899435, -87.624004)"
1129,Michigan & Oak,41.900644,-87.624008,0,1,"(41.900644, -87.624008)"
1130,Lake Shore & Cedar,41.90252,-87.624438,0,1,"(41.90252, -87.624438)"
1131,Lake Shore & Elm,41.903302,-87.624696,0,1,"(41.903302, -87.624696)"
1132,Lake Shore & Division,41.904191,-87.624966,0,1,"(41.904191, -87.624966)"
1133,Lake Shore & Scott,41.904949,-87.625024,0,1,"(41.904949, -87.625024)"
1134,Lake Shore & Goethe,41.906062,-87.625267,0,1,"(41.906062, -87.625267)"
1135,Lake Shore & Banks,41.907044,-87.625507,0,1,"(41.907044, -87.625507)"
1136,Lake Shore & Schiller,41.908064,-87.62576,0,1,"(41.908064, -87.62576)"
1137,Lake Shore & Burton,41.90967549,-87.62606647,0,1,"(41.90967549, -87.62606647)"
1138,Lake Shore & North Ave,41.91048649,-87.62611846,0,1,"(41.91048649, -87.62611846)"
1139,Stockton & LaSalle,41.913775,-87.631695,0,1,"(41.913775, -87.631695)"
1140,Stockton & Lincoln,41.91605182,-87.633235,0,1,"(41.91605182, -87.633235)"
1141,Stockton & Armitage,41.91875007,-87.63439805,0,1,"(41.91875007, -87.63439805)"
1142,Stockton & Dickens,41.92023618,-87.63546921,0,1,"(41.92023618, -87.63546921)"
1143,Stockton & Webster,41.92192341,-87.63562557,0,1,"(41.92192341, -87.63562557)"
1144,Stockton & Fullerton,41.9255619,-87.63586982,0,1,"(41.9255619, -87.63586982)"
1145,Stockton & Arlington,41.92663129,-87.63772817,0,1,"(41.92663129, -87.63772817)"
1146,Stockton & Roslyn,41.92829929,-87.63876726,0,1,"(41.92829929, -87.63876726)"
1147,Stockton & Wrightwood,41.93131955,-87.63888361,0,1,"(41.93131955, -87.63888361)"
1148,Sheridan & Diversey,41.93310869,-87.63917427,0,1,"(41.93310869, -87.63917427)"
1149,Sheridan & Surf,41.9344958,-87.63925986,0,1,"(41.9344958, -87.63925986)"
1150,Sheridan & Oakdale,41.935762,-87.639327,0,1,"(41.935762, -87.639327)"
1151,Sheridan & Wellington,41.936757,-87.639359,0,1,"(41.936757, -87.639359)"
1152,Sheridan & Barry,41.93788148,-87.6393989,0,1,"(41.93788148, -87.6393989)"
1153,Sheridan & Briar,41.93869424,-87.63942688,0,1,"(41.93869424, -87.63942688)"
1154,Sheridan & Belmont,41.94002509,-87.63950114,0,1,"(41.94002509, -87.63950114)"
1155,Sheridan & Belmont,41.94037175,-87.63947904,0,1,"(41.94037175, -87.63947904)"
1156,Lake Shore & Aldine,41.94239795,-87.63989396,0,1,"(41.94239795, -87.63989396)"
1157,Lake Shore & Roscoe,41.94352962,-87.64047498,0,1,"(41.94352962, -87.64047498)"
1159,Lake Shore & Stratford,41.94617767,-87.64195152,0,1,"(41.94617767, -87.64195152)"
1160,Lake Shore & Cornelia,41.94681669,-87.64230949,0,1,"(41.94681669, -87.64230949)"
1161,Lake Shore & Brompton,41.94779691,-87.64291887,0,1,"(41.94779691, -87.64291887)"
1162,Lake Shore & Addison,41.94882164,-87.64347358,0,1,"(41.94882164, -87.64347358)"
1163,Lake Shore & Waveland,41.95042884,-87.64449132,0,1,"(41.95042884, -87.64449132)"
1164,Lake Shore & W. Sheridan (3900 N),41.95293875,-87.64520143,0,1,"(41.95293875, -87.64520143)"
1165,Sheridan & Pine Grove,41.95292594,-87.64804289,0,1,"(41.95292594, -87.64804289)"
1166,Sheridan & Broadway,41.95279391,-87.65005424,0,1,"(41.95279391, -87.65005424)"
1167,Sheridan & Fremont,41.95276268,-87.65234011,0,1,"(41.95276268, -87.65234011)"
1168,Sheridan & Byron,41.9528711,-87.65442367,0,1,"(41.9528711, -87.65442367)"
1169,Sheridan & Dakin,41.95381159,-87.65445706,0,1,"(41.95381159, -87.65445706)"
1170,Sheridan & Irving Park,41.95464582,-87.65447745,0,1,"(41.95464582, -87.65447745)"
1171,Sheridan & Belle Plaine,41.95667487,-87.65453269,0,1,"(41.95667487, -87.65453269)"
1173,4225 N Sheridan,41.95915866,-87.65458848,0,1,"(41.95915866, -87.65458848)"
1174,Sheridan & Broadway/Montrose,41.96145576,-87.65466733,0,1,"(41.96145576, -87.65466733)"
1175,Sheridan & Montrose,41.961953,-87.654654,0,1,"(41.961953, -87.654654)"
1176,Sheridan & Sunnyside,41.963777,-87.654687,0,1,"(41.963777, -87.654687)"
1177,Sheridan & Wilson,41.965341,-87.65471,0,1,"(41.965341, -87.65471)"
1178,Sheridan & Leland,41.967182,-87.654733,0,1,"(41.967182, -87.654733)"
1179,Sheridan & Lawrence,41.96924989,-87.65475359,0,1,"(41.96924989, -87.65475359)"
1180,Sheridan & Gunnison,41.97025928,-87.65477843,0,1,"(41.97025928, -87.65477843)"
1181,Sheridan & Ainslie,41.971745,-87.654808,0,1,"(41.971745, -87.654808)"
1182,Sheridan & Argyle,41.973476,-87.65485,0,1,"(41.973476, -87.65485)"
1183,Sheridan & Winona,41.975451,-87.654897,0,1,"(41.975451, -87.654897)"
1184,Sheridan & Foster,41.97662,-87.654896,0,1,"(41.97662, -87.654896)"
1185,Sheridan & Berwyn,41.97820206,-87.65493189,0,1,"(41.97820206, -87.65493189)"
1186,Sheridan & Balmoral,41.980103,-87.655019,0,1,"(41.980103, -87.655019)"
1187,Sheridan & Catalpa,41.981793,-87.655074,0,1,"(41.981793, -87.655074)"
1188,Sheridan & Bryn Mawr,41.983594,-87.655113,0,1,"(41.983594, -87.655113)"
1189,Sheridan & Hollywood,41.985434,-87.655171,0,1,"(41.985434, -87.655171)"
1190,Sheridan & Ardmore,41.98752,-87.655223,0,1,"(41.98752, -87.655223)"
1191,Sheridan & Thorndale,41.990272,-87.655308,0,1,"(41.990272, -87.655308)"
1192,Sheridan & Glenlake,41.992523,-87.655378,0,1,"(41.992523, -87.655378)"
1198,Sheridan & Granville,41.994775,-87.655447,0,1,"(41.994775, -87.655447)"
1199,Sheridan & Rosemont,41.996592,-87.655503,0,1,"(41.996592, -87.655503)"
1200,Sheridan & Kenmore,41.99833161,-87.65693556,0,1,"(41.99833161, -87.65693556)"
1201,Sheridan & Winthrop,41.99827386,-87.65834886,0,1,"(41.99827386, -87.65834886)"
1203,Sheridan & Arthur (Red Line),42.00038209,-87.66060059,0,1,"(42.00038209, -87.66060059)"
1204,Sheridan & Loyola,42.001702,-87.660658,0,1,"(42.001702, -87.660658)"
1206,Sheridan & North Shore,42.003871,-87.66071682,0,1,"(42.003871, -87.66071682)"
1208,Sheridan & Pratt,42.00572,-87.660848,0,1,"(42.00572, -87.660848)"
1209,Sheridan & Farwell,42.006922,-87.661218,0,1,"(42.006922, -87.661218)"
1210,Sheridan & Morse,42.008133,-87.661598,0,1,"(42.008133, -87.661598)"
1211,Sheridan & Lunt,42.009358,-87.661995,0,1,"(42.009358, -87.661995)"
1212,Sheridan & Greenleaf,42.010572,-87.662412,0,1,"(42.010572, -87.662412)"
1213,Sheridan & Estes,42.01166,-87.662803,0,1,"(42.01166, -87.662803)"
1214,Sheridan & Touhy,42.013005,-87.663375,0,1,"(42.013005, -87.663375)"
1215,Sheridan & Chase,42.014113,-87.663994,0,1,"(42.014113, -87.663994)"
1216,Sheridan & Sherwin,42.01520955,-87.66467448,0,1,"(42.01520955, -87.66467448)"
1217,Sheridan & Jarvis,42.016268,-87.665018,0,1,"(42.016268, -87.665018)"
1219,Sheridan & Birchwood,42.018377,-87.665651,0,1,"(42.018377, -87.665651)"
1220,Howard & Sheridan,42.01930539,-87.6663015,0,1,"(42.01930539, -87.6663015)"
1224,Fullerton & Halsted,41.92551461,-87.64942757,0,1,"(41.92551461, -87.64942757)"
1225,Fullerton Red/Brown/Purple Line Station,41.92545583,-87.65277085,0,1,"(41.92545583, -87.65277085)"
1227,Fullerton & Racine,41.925372,-87.658338,0,1,"(41.925372, -87.658338)"
1228,Fullerton & Surrey Court,41.925326,-87.660272,0,1,"(41.925326, -87.660272)"
1230,Fullerton & Greenview,41.925195,-87.665491,0,1,"(41.925195, -87.665491)"
1233,Fullerton & Riverfront Mall (1800 W),41.92518646,-87.67266323,0,1,"(41.92518646, -87.67266323)"
1235,Fullerton & Elston,41.92511296,-87.67737132,0,1,"(41.92511296, -87.67737132)"
1236,Fullerton & Damen,41.92510902,-87.67817102,0,1,"(41.92510902, -87.67817102)"
1238,Fullerton & Oakley,41.92497379,-87.68511905,0,1,"(41.92497379, -87.68511905)"
1239,Fullerton & Western,41.92497239,-87.68746105,0,1,"(41.92497239, -87.68746105)"
1240,Fullerton & Campbell,41.92495903,-87.68999056,0,1,"(41.92495903, -87.68999056)"
1241,Fullerton & Rockwell,41.92496134,-87.69237395,0,1,"(41.92496134, -87.69237395)"
1242,Fullerton & Washtenaw,41.92489381,-87.69485385,0,1,"(41.92489381, -87.69485385)"
1243,Fullerton & California,41.92491773,-87.6972578,0,1,"(41.92491773, -87.6972578)"
1246,Fullerton & Albany,41.92481938,-87.70440387,0,1,"(41.92481938, -87.70440387)"
1248,Fullerton & Kedzie,41.92485644,-87.70764324,0,1,"(41.92485644, -87.70764324)"
1249,Fullerton & Spaulding,41.92476874,-87.71054668,0,1,"(41.92476874, -87.71054668)"
1250,Fullerton & Kimball,41.92478637,-87.71186757,0,1,"(41.92478637, -87.71186757)"
1251,Fullerton & St. Louis,41.92470114,-87.71422972,0,1,"(41.92470114, -87.71422972)"
1252,Fullerton & Central Park,41.92468538,-87.71686388,0,1,"(41.92468538, -87.71686388)"
1253,Fullerton & Lawndale,41.92468537,-87.71936289,0,1,"(41.92468537, -87.71936289)"
1255,Fullerton & Hamlin,41.9246511,-87.72190277,0,1,"(41.9246511, -87.72190277)"
1256,Fullerton & Springfield,41.92457117,-87.72419802,0,1,"(41.92457117, -87.72419802)"
1257,Fullerton & Pulaski,41.92459714,-87.72659003,0,1,"(41.92459714, -87.72659003)"
1258,Fullerton & Karlov,41.92451232,-87.72910453,0,1,"(41.92451232, -87.72910453)"
1259,Fullerton & Keeler,41.92452654,-87.73153997,0,1,"(41.92452654, -87.73153997)"
1260,Fullerton & Tripp,41.92452754,-87.73280797,0,1,"(41.92452754, -87.73280797)"
1261,Fullerton & Kildare,41.92446381,-87.73395236,0,1,"(41.92446381, -87.73395236)"
1262,Fullerton & Kostner,41.92445662,-87.73647819,0,1,"(41.92445662, -87.73647819)"
1263,Fullerton & Kilbourn,41.92441912,-87.73891406,0,1,"(41.92441912, -87.73891406)"
1264,Fullerton & Kenton,41.9243809,-87.74128345,0,1,"(41.9243809, -87.74128345)"
1265,Fullerton & Kilpatrick,41.92435094,-87.74370201,0,1,"(41.92435094, -87.74370201)"
1267,Fullerton & Lamon,41.92426096,-87.74864711,0,1,"(41.92426096, -87.74864711)"
1269,Fullerton & Leclaire,41.92421811,-87.75351124,0,1,"(41.92421811, -87.75351124)"
1270,Fullerton & Laramie,41.92418679,-87.7559386,0,1,"(41.92418679, -87.7559386)"
1271,Fullerton & Lockwood,41.92414479,-87.75857361,0,1,"(41.92414479, -87.75857361)"
1272,Fullerton & Long,41.92413036,-87.76098227,0,1,"(41.92413036, -87.76098227)"
1273,Fullerton & Linder,41.92406709,-87.76341307,0,1,"(41.92406709, -87.76341307)"
1275,Fullerton & Major,41.92406908,-87.76821608,0,1,"(41.92406908, -87.76821608)"
1277,Fullerton & Marmora,41.92389931,-87.77316121,0,1,"(41.92389931, -87.77316121)"
1278,Fullerton & Austin,41.92393763,-87.77558861,0,1,"(41.92393763, -87.77558861)"
1279,Fullerton & Meade,41.92386353,-87.77804259,0,1,"(41.92386353, -87.77804259)"
1280,Fullerton & Melvina,41.9238173,-87.78055023,0,1,"(41.9238173, -87.78055023)"
1281,Fullerton & Mobile,41.92381775,-87.78304409,0,1,"(41.92381775, -87.78304409)"
1282,Fullerton & Narragansett,41.92378886,-87.7852845,0,1,"(41.92378886, -87.7852845)"
1283,6450 W Fullerton,41.92376391,-87.78816899,0,1,"(41.92376391, -87.78816899)"
1286,6450 W Fullerton,41.92360998,-87.78685695,0,1,"(41.92360998, -87.78685695)"
1287,2500 N Narragansett,41.925553,-87.785426,0,1,"(41.925553, -87.785426)"
1289,2500 N Narragansett,41.92585801,-87.78559993,0,1,"(41.92585801, -87.78559993)"
1291,Fullerton & Mobile,41.92364318,-87.78308524,0,1,"(41.92364318, -87.78308524)"
1292,Fullerton & Melvina,41.923692,-87.78061594,0,1,"(41.923692, -87.78061594)"
1293,Fullerton & Meade,41.92375676,-87.77824858,0,1,"(41.92375676, -87.77824858)"
1294,Fullerton & Austin,41.92371739,-87.7758422,0,1,"(41.92371739, -87.7758422)"
1295,Fullerton & Marmora,41.92375735,-87.77335086,0,1,"(41.92375735, -87.77335086)"
1296,Fullerton & Menard,41.9238215,-87.77095686,0,1,"(41.9238215, -87.77095686)"
1297,Fullerton & Major,41.923875,-87.768527,0,1,"(41.923875, -87.768527)"
1299,Fullerton & Linder,41.923947,-87.763621,0,1,"(41.923947, -87.763621)"
1301,Fullerton & Lockwood,41.924009,-87.758706,0,1,"(41.924009, -87.758706)"
1302,Fullerton & Laramie,41.924042,-87.756234,0,1,"(41.924042, -87.756234)"
1303,Fullerton & Leclaire,41.92405194,-87.75379947,0,1,"(41.92405194, -87.75379947)"
1304,Fullerton & Lavergne,41.92408582,-87.75132598,0,1,"(41.92408582, -87.75132598)"
1305,Fullerton & Lamon,41.92407702,-87.74885862,0,1,"(41.92407702, -87.74885862)"
1306,Fullerton & Cicero,41.92411249,-87.74649526,0,1,"(41.92411249, -87.74649526)"
1307,Fullerton & Kilpatrick,41.92414302,-87.74397363,0,1,"(41.92414302, -87.74397363)"
1308,Fullerton & Kenton,41.924243,-87.741612,0,1,"(41.924243, -87.741612)"
1309,Fullerton & Kilbourn,41.92425217,-87.73908742,0,1,"(41.92425217, -87.73908742)"
1310,Fullerton & Kostner,41.924307,-87.736677,0,1,"(41.924307, -87.736677)"
1311,Fullerton & Kildare,41.924337,-87.734225,0,1,"(41.924337, -87.734225)"
1312,Fullerton & Tripp,41.924352,-87.733002,0,1,"(41.924352, -87.733002)"
1313,Fullerton & Keeler,41.924367,-87.731776,0,1,"(41.924367, -87.731776)"
1314,Fullerton & Karlov,41.924393,-87.729337,0,1,"(41.924393, -87.729337)"
1315,Fullerton & Pulaski,41.92435352,-87.72695688,0,1,"(41.92435352, -87.72695688)"
1316,Fullerton & Springfield,41.92438703,-87.7244069,0,1,"(41.92438703, -87.7244069)"
1317,Fullerton & Hamlin,41.92441503,-87.7219759,0,1,"(41.92441503, -87.7219759)"
1319,Fullerton & Lawndale,41.92444402,-87.7195299,0,1,"(41.92444402, -87.7195299)"
1320,Fullerton & Central Park,41.92447302,-87.7170749,0,1,"(41.92447302, -87.7170749)"
1321,Fullerton & St. Louis,41.92449502,-87.71465391,0,1,"(41.92449502, -87.71465391)"
1322,Fullerton & Kimball,41.92454274,-87.71226851,0,1,"(41.92454274, -87.71226851)"
1323,Fullerton & Spaulding,41.924622,-87.710876,0,1,"(41.924622, -87.710876)"
1324,Fullerton & Kedzie,41.92461783,-87.70764673,0,1,"(41.92461783, -87.70764673)"
1326,Fullerton & Albany,41.92468,-87.704746,0,1,"(41.92468, -87.704746)"
1327,Fullerton & Sacramento,41.924702,-87.702422,0,1,"(41.924702, -87.702422)"
1329,Fullerton & California,41.92469808,-87.69756213,0,1,"(41.92469808, -87.69756213)"
1330,Fullerton & Washtenaw,41.92473347,-87.69543663,0,1,"(41.92473347, -87.69543663)"
1331,Fullerton & Rockwell,41.92478215,-87.69283414,0,1,"(41.92478215, -87.69283414)"
1332,Fullerton & Campbell,41.92479405,-87.69015771,0,1,"(41.92479405, -87.69015771)"
1333,Fullerton & Western,41.92480595,-87.6878182,0,1,"(41.92480595, -87.6878182)"
1334,Fullerton & Oakley,41.92483234,-87.68525748,0,1,"(41.92483234, -87.68525748)"
1336,Fullerton & Damen,41.92494051,-87.67801932,0,1,"(41.92494051, -87.67801932)"
1337,Fullerton & Elston,41.92495463,-87.67701282,0,1,"(41.92495463, -87.67701282)"
1339,Fullerton & Wood,41.92502693,-87.67279051,0,1,"(41.92502693, -87.67279051)"
1340,Fullerton & Clybourn,41.92505246,-87.66939034,0,1,"(41.92505246, -87.66939034)"
1342,Fullerton & Greenview,41.92511541,-87.66593648,0,1,"(41.92511541, -87.66593648)"
1343,Fullerton & Southport,41.92515141,-87.66349448,0,1,"(41.92515141, -87.66349448)"
1345,Fullerton & Racine,41.92526027,-87.65861136,0,1,"(41.92526027, -87.65861136)"
1346,Fullerton & Seminary,41.92529927,-87.65607636,0,1,"(41.92529927, -87.65607636)"
1348,Fullerton & Halsted/Lincoln,41.92538116,-87.64896693,0,1,"(41.92538116, -87.64896693)"
1349,Halsted & Belden,41.923701,-87.648777,0,1,"(41.923701, -87.648777)"
1350,Webster & Halsted,41.92176334,-87.64843139,0,1,"(41.92176334, -87.64843139)"
1351,Webster & Orchard,41.92180172,-87.64620384,0,1,"(41.92180172, -87.64620384)"
1352,Lincoln & Webster,41.9222097,-87.64410792,0,1,"(41.9222097, -87.64410792)"
1353,Lincoln & Belden/Orchard,41.92358908,-87.64591019,0,1,"(41.92358908, -87.64591019)"
1354,Devon & Kedzie Terminal,41.99792643,-87.70953942,0,1,"(41.99792643, -87.70953942)"
1355,McCormick & Devon,41.99706927,-87.71181202,0,1,"(41.99706927, -87.71181202)"
1356,Lincoln & McCormick/Kimball,41.99403709,-87.71351456,0,1,"(41.99403709, -87.71351456)"
1357,Lincoln & Jersey,41.99251448,-87.71103974,0,1,"(41.99251448, -87.71103974)"
1358,Lincoln & Kedzie,41.99115999,-87.7088376,0,1,"(41.99115999, -87.7088376)"
1359,Lincoln & Peterson,41.99013542,-87.7071616,0,1,"(41.99013542, -87.7071616)"
1360,Lincoln & Whipple,41.989008,-87.705259,0,1,"(41.989008, -87.705259)"
1361,Lincoln & Sacramento,41.98831,-87.704061,0,1,"(41.98831, -87.704061)"
1362,Lincoln & Francisco,41.986778,-87.701489,0,1,"(41.986778, -87.701489)"
1363,Lincoln & California,41.98548815,-87.69935198,0,1,"(41.98548815, -87.69935198)"
1364,Lincoln & Washtenaw,41.9839997,-87.69682508,0,1,"(41.9839997, -87.69682508)"
1365,Lincoln & Bryn Mawr,41.98324763,-87.69552629,0,1,"(41.98324763, -87.69552629)"
1367,Lincoln & Balmoral,41.979541,-87.692739,0,1,"(41.979541, -87.692739)"
1368,Lincoln & Berwyn,41.977713,-87.692578,0,1,"(41.977713, -87.692578)"
1370,Lincoln & Carmen,41.97413358,-87.69217242,0,1,"(41.97413358, -87.69217242)"
1371,Lincoln & Winnemac,41.97304,-87.691487,0,1,"(41.97304, -87.691487)"
1372,Lincoln & Argyle,41.971925,-87.690735,0,1,"(41.971925, -87.690735)"
1373,Ainslie & Western,41.97033314,-87.68916987,0,1,"(41.97033314, -87.68916987)"
1375,Leland & Western (Brown Line),41.96663176,-87.68836263,0,1,"(41.96663176, -87.68836263)"
1400,Lincoln & Belden/Orchard,41.92380705,-87.64660256,0,1,"(41.92380705, -87.64660256)"
1401,Lincoln & Webster,41.92201016,-87.64409806,0,1,"(41.92201016, -87.64409806)"
1402,Lincoln & Dickens/Cleveland,41.92021266,-87.64160246,0,1,"(41.92021266, -87.64160246)"
1403,Lincoln & Armitage/Sedgwick,41.91843825,-87.63911089,0,1,"(41.91843825, -87.63911089)"
1405,Armitage & Clark,41.91836831,-87.63626476,0,1,"(41.91836831, -87.63626476)"
1409,Clark & Menomonee,41.914893,-87.63404233,0,1,"(41.914893, -87.63404233)"
1410,LaSalle & Eugenie,41.91260389,-87.63331987,0,1,"(41.91260389, -87.63331987)"
1411,LaSalle & North Ave,41.91081094,-87.63329605,0,1,"(41.91081094, -87.63329605)"
1412,LaSalle & Burton,41.908974,-87.633169,0,1,"(41.908974, -87.633169)"
1413,LaSalle & Schiller,41.90750697,-87.6331709,0,1,"(41.90750697, -87.6331709)"
1414,LaSalle & Goethe,41.90557247,-87.63311331,0,1,"(41.90557247, -87.63311331)"
1415,LaSalle & Division,41.90365174,-87.6330524,0,1,"(41.90365174, -87.6330524)"
1417,LaSalle & Oak,41.900327,-87.632942,0,1,"(41.900327, -87.632942)"
1418,LaSalle & Delaware,41.899001,-87.632906,0,1,"(41.899001, -87.632906)"
1419,LaSalle & Chestnut,41.897891,-87.632875,0,1,"(41.897891, -87.632875)"
1421,Wacker (Upper) & Michigan,41.88836,-87.625055,0,1,"(41.88836, -87.625055)"
1423,State & Lake,41.885893,-87.628053,0,1,"(41.885893, -87.628053)"
1425,State & Washington,41.883371,-87.627972,0,1,"(41.883371, -87.627972)"
1427,State & Monroe,41.880856,-87.627834,0,1,"(41.880856, -87.627834)"
1429,State & Jackson,41.878318,-87.62777,0,1,"(41.878318, -87.62777)"
1430,State & Van Buren,41.8769928,-87.62776397,0,1,"(41.8769928, -87.62776397)"
1431,State & Harrison/Congress,41.87499673,-87.62769601,0,1,"(41.87499673, -87.62769601)"
1437,State & Randolph,41.884351,-87.627791,0,1,"(41.884351, -87.627791)"
1438,State & Lake,41.885601,-87.627823,0,1,"(41.885601, -87.627823)"
1439,State & E. Wacker,41.886689,-87.627831,0,1,"(41.886689, -87.627831)"
1441,Wacker (Upper) & Michigan,41.888144,-87.625233,0,1,"(41.888144, -87.625233)"
1443,LaSalle & Delaware,41.89929014,-87.63264171,0,1,"(41.89929014, -87.63264171)"
1444,LaSalle & Oak,41.90062878,-87.63266363,0,1,"(41.90062878, -87.63266363)"
1445,LaSalle & Maple,41.90202524,-87.63273764,0,1,"(41.90202524, -87.63273764)"
1446,LaSalle & Division,41.90402022,-87.63278441,0,1,"(41.90402022, -87.63278441)"
1447,LaSalle & Goethe,41.9059201,-87.6328527,0,1,"(41.9059201, -87.6328527)"
1448,LaSalle & Schiller,41.90790287,-87.63291501,0,1,"(41.90790287, -87.63291501)"
1449,LaSalle & Burton,41.9090037,-87.63296283,0,1,"(41.9090037, -87.63296283)"
1450,LaSalle & North Ave,41.91103396,-87.63298378,0,1,"(41.91103396, -87.63298378)"
1451,Clark & LaSalle,41.913409,-87.632857,0,1,"(41.913409, -87.632857)"
1456,Lincoln & Dickens/Cleveland,41.91999329,-87.6408543,0,1,"(41.91999329, -87.6408543)"
1483,Western Brown Line Station,41.96605186,-87.68855157,0,1,"(41.96605186, -87.68855157)"
1484,Western & Leland,41.96645918,-87.68870499,0,1,"(41.96645918, -87.68870499)"
1486,Ainslie & Western,41.97046143,-87.689449,0,1,"(41.97046143, -87.689449)"
1487,Lincoln & Argyle,41.97191767,-87.69054584,0,1,"(41.97191767, -87.69054584)"
1488,Lincoln & Winnemac,41.972931,-87.691278,0,1,"(41.972931, -87.691278)"
1489,Lincoln & Carmen,41.97394826,-87.69189679,0,1,"(41.97394826, -87.69189679)"
1491,Lincoln & Berwyn,41.977658,-87.692505,0,1,"(41.977658, -87.692505)"
1492,Lincoln & Balmoral,41.979485,-87.692666,0,1,"(41.979485, -87.692666)"
1493,Lincoln & Catalpa,41.98124037,-87.69273674,0,1,"(41.98124037, -87.69273674)"
1494,Lincoln & Bryn Mawr,41.98304912,-87.6947361,0,1,"(41.98304912, -87.6947361)"
1495,Lincoln & Washtenaw,41.98433681,-87.69695023,0,1,"(41.98433681, -87.69695023)"
1497,Lincoln & Francisco,41.986924,-87.701378,0,1,"(41.986924, -87.701378)"
1498,Lincoln & Richmond,41.98796,-87.70315,0,1,"(41.98796, -87.70315)"
1499,Lincoln & Sacramento,41.988701,-87.704385,0,1,"(41.988701, -87.704385)"
1500,Lincoln & Whipple,41.98937717,-87.70545115,0,1,"(41.98937717, -87.70545115)"
1502,Lincoln & Peterson,41.99023575,-87.70687864,0,1,"(41.99023575, -87.70687864)"
1503,Lincoln & Kedzie,41.99141435,-87.70884994,0,1,"(41.99141435, -87.70884994)"
1504,Lincoln & Jersey,41.99306426,-87.71141257,0,1,"(41.99306426, -87.71141257)"
1505,Lincoln & McCormick/Kimball,41.99448334,-87.71366766,0,1,"(41.99448334, -87.71366766)"
1507,McCormick & Devon,41.99715788,-87.71150524,0,1,"(41.99715788, -87.71150524)"
1510,Stony Island & 62nd Street,41.78281897,-87.58642851,0,1,"(41.78281897, -87.58642851)"
1511,Stony Island & 61st Street,41.78387199,-87.58644768,0,1,"(41.78387199, -87.58644768)"
1512,Stony Island & 60th Street,41.78601833,-87.5864924,0,1,"(41.78601833, -87.5864924)"
1513,Stony Island & 59th Street,41.78808415,-87.58653315,0,1,"(41.78808415, -87.58653315)"
1514,5800 S Stony Island,41.78962,-87.586575,0,1,"(41.78962, -87.586575)"
1515,Stony Island & 57th Drive,41.79134,-87.58663,0,1,"(41.79134, -87.58663)"
1517,S Hyde Park & 56th Street,41.79331587,-87.58380228,0,1,"(41.79331587, -87.58380228)"
1518,S Hyde Park & 55th Street,41.79542943,-87.58388019,0,1,"(41.79542943, -87.58388019)"
1519,5440 S S Hyde Park,41.79678799,-87.5838989,0,1,"(41.79678799, -87.5838989)"
1520,S Hyde Park & 54th Street,41.79835025,-87.58394862,0,1,"(41.79835025, -87.58394862)"
1521,S Hyde Park & 53rd Street,41.79946812,-87.58396077,0,1,"(41.79946812, -87.58396077)"
1522,5200 S S Hyde Park,41.80084655,-87.58442446,0,1,"(41.80084655, -87.58442446)"
1523,E Hyde Park & East End,41.8025655,-87.58570703,0,1,"(41.8025655, -87.58570703)"
1524,E Hyde Park & Cornell,41.802537,-87.58671,0,1,"(41.802537, -87.58671)"
1525,E Hyde Park & Lake Park,41.802527,-87.588262,0,1,"(41.802527, -87.588262)"
1527,E Hyde Park & Dorchester,41.80246856,-87.59213888,0,1,"(41.80246856, -87.59213888)"
1528,E Hyde Park & Kenwood,41.802452,-87.593577,0,1,"(41.802452, -87.593577)"
1529,E Hyde Park & Kimbark,41.80243723,-87.59532709,0,1,"(41.80243723, -87.59532709)"
1530,E Hyde Park & Woodlawn,41.80241542,-87.59704903,0,1,"(41.80241542, -87.59704903)"
1533,E Hyde Park & Ellis,41.80236318,-87.60194444,0,1,"(41.80236318, -87.60194444)"
1535,51st Street & Cottage Grove,41.80229321,-87.60671325,0,1,"(41.80229321, -87.60671325)"
1536,51st Street & Evans,41.80228814,-87.60785102,0,1,"(41.80228814, -87.60785102)"
1537,51st Street & Champlain,41.802242,-87.609885,0,1,"(41.802242, -87.609885)"
1538,51st Street & St. Lawrence,41.80220586,-87.61116329,0,1,"(41.80220586, -87.61116329)"
1539,51st Street & Forrestville,41.80217605,-87.61258461,0,1,"(41.80217605, -87.61258461)"
1540,51st Street & King Drive,41.80218,-87.61548,0,1,"(41.80218, -87.61548)"
1541,51st Street & King Drive,41.8021636,-87.61682331,0,1,"(41.8021636, -87.61682331)"
1542,51st Green Line Station,41.80208265,-87.61855914,0,1,"(41.80208265, -87.61855914)"
1543,51st Street & Indiana,41.80210347,-87.62093295,0,1,"(41.80210347, -87.62093295)"
1554,Indiana Green Line Station,41.82194376,-87.62143777,0,1,"(41.82194376, -87.62143777)"
1560,Indiana & 34th Street,41.832975,-87.621707,0,1,"(41.832975, -87.621707)"
1562,Indiana & 32nd Street,41.83643,-87.621758,0,1,"(41.83643, -87.621758)"
1563,Indiana & 31st Street,41.838248,-87.621825,0,1,"(41.838248, -87.621825)"
1564,3000 S Michigan,41.840602,-87.623115,0,1,"(41.840602, -87.623115)"
1565,Michigan & 29th Street,41.841882,-87.62324,0,1,"(41.841882, -87.62324)"
1566,Michigan & 28th Street,41.84363,-87.623248,0,1,"(41.84363, -87.623248)"
1567,Michigan & 26th Street,41.84588766,-87.62332019,0,1,"(41.84588766, -87.62332019)"
1568,Michigan & 25th Street,41.847313,-87.6235,0,1,"(41.847313, -87.6235)"
1570,Michigan & 23rd Street,41.85114934,-87.62358591,0,1,"(41.85114934, -87.62358591)"
1573,Michigan & 21st Street,41.85452045,-87.62374128,0,1,"(41.85452045, -87.62374128)"
1574,Michigan & Cullerton,41.85571036,-87.62377044,0,1,"(41.85571036, -87.62377044)"
1575,Michigan & 18th Street,41.85812678,-87.6238274,0,1,"(41.85812678, -87.6238274)"
1577,1509 S Michigan,41.86183776,-87.62388488,0,1,"(41.86183776, -87.62388488)"
1578,Michigan & 14th Street,41.86398031,-87.62396177,0,1,"(41.86398031, -87.62396177)"
1579,Michigan & 13th Street,41.86598373,-87.6239989,0,1,"(41.86598373, -87.6239989)"
1580,Michigan & Roosevelt,41.86789271,-87.6239641,0,1,"(41.86789271, -87.6239641)"
1581,Michigan & 11th Street,41.86914471,-87.6239645,0,1,"(41.86914471, -87.6239645)"
1582,Michigan & 9th Street,41.87050264,-87.62400635,0,1,"(41.87050264, -87.62400635)"
1583,Michigan & 8th Street,41.87178684,-87.624034,0,1,"(41.87178684, -87.624034)"
1584,Michigan & Balbo,41.873395,-87.624082,0,1,"(41.873395, -87.624082)"
1586,Michigan & Harrison,41.8745596,-87.62437372,0,1,"(41.8745596, -87.62437372)"
1587,Michigan & Balbo,41.873288,-87.624329,0,1,"(41.873288, -87.624329)"
1588,Michigan & 8th Street,41.872006,-87.624304,0,1,"(41.872006, -87.624304)"
1589,Michigan & 9th Street,41.8702878,-87.62427082,0,1,"(41.8702878, -87.62427082)"
1590,Michigan & 11th Street,41.869091,-87.624278,0,1,"(41.869091, -87.624278)"
1591,Michigan & Roosevelt,41.86712011,-87.62425898,0,1,"(41.86712011, -87.62425898)"
1592,Michigan & 13th Street,41.86559485,-87.62422692,0,1,"(41.86559485, -87.62422692)"
1593,Michigan & 14th Street,41.863883,-87.624185,0,1,"(41.863883, -87.624185)"
1594,1510 S Michigan,41.861798,-87.624121,0,1,"(41.861798, -87.624121)"
1595,Michigan & 16th Street,41.85994461,-87.62409418,0,1,"(41.85994461, -87.62409418)"
1596,Michigan & 18th Street,41.85764578,-87.62404108,0,1,"(41.85764578, -87.62404108)"
1597,Michigan & Cullerton,41.85534056,-87.62399267,0,1,"(41.85534056, -87.62399267)"
1598,Michigan & 21st Street,41.85399586,-87.62396271,0,1,"(41.85399586, -87.62396271)"
1599,Michigan & Cermak,41.85251285,-87.62390905,0,1,"(41.85251285, -87.62390905)"
1602,Michigan & 25th Street,41.84715644,-87.62376682,0,1,"(41.84715644, -87.62376682)"
1603,Michigan & 26th Street,41.84546434,-87.62371643,0,1,"(41.84546434, -87.62371643)"
1604,Michigan & 28th Street,41.84312843,-87.62365678,0,1,"(41.84312843, -87.62365678)"
1605,Michigan & 29th Street,41.84173919,-87.62362406,0,1,"(41.84173919, -87.62362406)"
1606,3000 S Michigan,41.84048,-87.623545,0,1,"(41.84048, -87.623545)"
1607,Michigan & 31st Street,41.83819038,-87.62359131,0,1,"(41.83819038, -87.62359131)"
1608,Michigan & 32nd Street,41.836222,-87.623465,0,1,"(41.836222, -87.623465)"
1609,Michigan & 33rd Street,41.83449802,-87.62343531,0,1,"(41.83449802, -87.62343531)"
1610,Michigan & 34th Street,41.832755,-87.623357,0,1,"(41.832755, -87.623357)"
1611,Michigan & 35th Street,41.83116438,-87.62335198,0,1,"(41.83116438, -87.62335198)"
1616,4016 S Michigan,41.821493,-87.623215,0,1,"(41.821493, -87.623215)"
1627,51st Street & Michigan,41.80196418,-87.62253139,0,1,"(41.80196418, -87.62253139)"
1628,51st Street & Indiana,41.80196438,-87.62115448,0,1,"(41.80196438, -87.62115448)"
1629,51st Green Line Station,41.80194211,-87.61856199,0,1,"(41.80194211, -87.61856199)"
1631,51st Street & King Drive,41.80203876,-87.61574132,0,1,"(41.80203876, -87.61574132)"
1632,51st Street & Forrestville,41.802073,-87.612518,0,1,"(41.802073, -87.612518)"
1633,51st Street & St. Lawrence,41.802108,-87.611445,0,1,"(41.802108, -87.611445)"
1634,51st Street & Champlain,41.80214357,-87.61000786,0,1,"(41.80214357, -87.61000786)"
1635,51st Street & Evans,41.802158,-87.607908,0,1,"(41.802158, -87.607908)"
1636,51st Street & Cottage Grove,41.80219055,-87.60657938,0,1,"(41.80219055, -87.60657938)"
1637,51st Street & Drexel Square,41.80222343,-87.60437945,0,1,"(41.80222343, -87.60437945)"
1638,E Hyde Park & Drexel,41.80223132,-87.60354986,0,1,"(41.80223132, -87.60354986)"
1639,E Hyde Park & Ellis,41.80226246,-87.60109479,0,1,"(41.80226246, -87.60109479)"
1642,E Hyde Park & Woodlawn,41.80231351,-87.59644885,0,1,"(41.80231351, -87.59644885)"
1643,E Hyde Park & Kimbark,41.80233903,-87.5948762,0,1,"(41.80233903, -87.5948762)"
1644,E Hyde Park & Kenwood,41.80235703,-87.5932392,0,1,"(41.80235703, -87.5932392)"
1645,E Hyde Park & Dorchester,41.80236778,-87.59163448,0,1,"(41.80236778, -87.59163448)"
1646,E Hyde Park & Blackstone,41.80238686,-87.59016592,0,1,"(41.80238686, -87.59016592)"
1647,E Hyde Park & Lake Park,41.802413,-87.588083,0,1,"(41.802413, -87.588083)"
1648,E Hyde Park & Cornell,41.80244072,-87.58625727,0,1,"(41.80244072, -87.58625727)"
1649,S Hyde Park & E. Hyde Park Blvd.,41.80223894,-87.58515604,0,1,"(41.80223894, -87.58515604)"
1650,5200 S S Hyde Park,41.801033,-87.584618,0,1,"(41.801033, -87.584618)"
1651,S Hyde Park & 53rd Street,41.79939379,-87.58411666,0,1,"(41.79939379, -87.58411666)"
1652,S Hyde Park & 54th Street,41.797913,-87.584058,0,1,"(41.797913, -87.584058)"
1653,5440 S S Hyde Park,41.79676417,-87.5840437,0,1,"(41.79676417, -87.5840437)"
1654,S Hyde Park & 55th Street,41.79498672,-87.58402031,0,1,"(41.79498672, -87.58402031)"
1655,S Hyde Park & 56th Street,41.79350191,-87.58394847,0,1,"(41.79350191, -87.58394847)"
1656,Stony Island & 57th Street,41.791215,-87.586775,0,1,"(41.791215, -87.586775)"
1658,Stony Island & 59th Street,41.788058,-87.586715,0,1,"(41.788058, -87.586715)"
1659,Stony Island & 60th Street,41.78583775,-87.58667648,0,1,"(41.78583775, -87.58667648)"
1660,Stony Island & 61st Street,41.78390377,-87.58663386,0,1,"(41.78390377, -87.58663386)"
1661,Stony Island & 62nd Street,41.78279019,-87.58660825,0,1,"(41.78279019, -87.58660825)"
1662,Western Brown Line Station,41.96611083,-87.68856058,0,1,"(41.96611083, -87.68856058)"
1664,Western & Winnemac,41.97294441,-87.68890282,0,1,"(41.97294441, -87.68890282)"
1665,Western & Carmen,41.97411541,-87.68893782,0,1,"(41.97411541, -87.68893782)"
1668,Western & Balmoral,41.97952258,-87.68918272,0,1,"(41.97952258, -87.68918272)"
1669,Western & Catalpa,41.98135675,-87.68924507,0,1,"(41.98135675, -87.68924507)"
1670,Western & Bryn Mawr,41.98344183,-87.68932834,0,1,"(41.98344183, -87.68932834)"
1671,Western & Hollywood,41.98497887,-87.68938024,0,1,"(41.98497887, -87.68938024)"
1672,Western & Ardmore,41.98687587,-87.68946124,0,1,"(41.98687587, -87.68946124)"
1673,Western & Thorndale,41.98869387,-87.68951524,0,1,"(41.98869387, -87.68951524)"
1675,Western & Glenlake,41.992177,-87.689607,0,1,"(41.992177, -87.689607)"
1676,Western & Granville,41.993997,-87.689681,0,1,"(41.993997, -87.689681)"
1677,Western & Rosemont,41.995818,-87.68973,0,1,"(41.995818, -87.68973)"
1678,Western & Devon,41.99760248,-87.68973846,0,1,"(41.99760248, -87.68973846)"
1679,Western & Arthur,41.999452,-87.689853,0,1,"(41.999452, -87.689853)"
1680,Western & Albion,42.00129561,-87.68988816,0,1,"(42.00129561, -87.68988816)"
1681,Western & North Shore,42.003257,-87.689936,0,1,"(42.003257, -87.689936)"
1682,Western & Pratt,42.00492685,-87.68992353,0,1,"(42.00492685, -87.68992353)"
1683,Western & Morse,42.007064,-87.690043,0,1,"(42.007064, -87.690043)"
1684,Western & Lunt,42.0085179,-87.69004485,0,1,"(42.0085179, -87.69004485)"
1686,Western & Estes,42.010824,-87.690135,0,1,"(42.010824, -87.690135)"
1687,Western & Touhy,42.01214788,-87.6901027,0,1,"(42.01214788, -87.6901027)"
1688,Western & Chase,42.014023,-87.690149,0,1,"(42.014023, -87.690149)"
1689,Western & Jarvis,42.01558983,-87.69013526,0,1,"(42.01558983, -87.69013526)"
1690,Western & Birchwood,42.01734771,-87.69009938,0,1,"(42.01734771, -87.69009938)"
1691,Western & Birchwood Terminal,42.01823063,-87.68975956,0,1,"(42.01823063, -87.68975956)"
1692,Western & Fargo,42.01689019,-87.69030187,0,1,"(42.01689019, -87.69030187)"
1693,Western & Jarvis,42.015981,-87.690277,0,1,"(42.015981, -87.690277)"
1694,Western & Chase,42.014038,-87.690296,0,1,"(42.014038, -87.690296)"
1695,Western & Touhy,42.01238468,-87.69040169,0,1,"(42.01238468, -87.69040169)"
1696,Western & Estes,42.010976,-87.690281,0,1,"(42.010976, -87.690281)"
1698,Western & Lunt,42.00873915,-87.69027838,0,1,"(42.00873915, -87.69027838)"
1699,Western & Morse,42.00693867,-87.69017329,0,1,"(42.00693867, -87.69017329)"
1700,Western & Pratt,42.00513843,-87.69023418,0,1,"(42.00513843, -87.69023418)"
1701,Western & North Shore,42.00326906,-87.69013986,0,1,"(42.00326906, -87.69013986)"
1702,Western & Albion,42.001447,-87.690046,0,1,"(42.001447, -87.690046)"
1703,Western & Arthur,41.999618,-87.689999,0,1,"(41.999618, -87.689999)"
1704,Western & Devon,41.99783124,-87.69002808,0,1,"(41.99783124, -87.69002808)"
1705,Western & Rosemont,41.9959867,-87.68995464,0,1,"(41.9959867, -87.68995464)"
1706,Western & Granville,41.99417974,-87.68990551,0,1,"(41.99417974, -87.68990551)"
1707,Western & Glenlake,41.99235227,-87.68983931,0,1,"(41.99235227, -87.68983931)"
1708,Western & Peterson,41.99064684,-87.68982173,0,1,"(41.99064684, -87.68982173)"
1709,Western & Thorndale,41.988697,-87.689745,0,1,"(41.988697, -87.689745)"
1710,Western & Ardmore,41.986879,-87.689691,0,1,"(41.986879, -87.689691)"
1711,Western & Hollywood,41.98505,-87.689609,0,1,"(41.98505, -87.689609)"
1713,Western & Catalpa,41.98148587,-87.68947464,0,1,"(41.98148587, -87.68947464)"
1714,Western & Balmoral,41.97959573,-87.68940328,0,1,"(41.97959573, -87.68940328)"
1715,Western & Berwyn,41.97840842,-87.68935634,0,1,"(41.97840842, -87.68935634)"
1717,Western & Foster,41.97601387,-87.68929994,0,1,"(41.97601387, -87.68929994)"
1718,Western & Carmen,41.97416281,-87.68923249,0,1,"(41.97416281, -87.68923249)"
1719,Western & Winnemac,41.97309429,-87.68920615,0,1,"(41.97309429, -87.68920615)"
1720,Western & Ainslie,41.970532,-87.68911753,0,1,"(41.970532, -87.68911753)"
1721,Devon & Kedzie,41.9973267,-87.70904957,0,1,"(41.9973267, -87.70904957)"
1722,Devon & Albany,41.99729662,-87.707033,0,1,"(41.99729662, -87.707033)"
1724,Devon & Francisco,41.99743553,-87.70220796,0,1,"(41.99743553, -87.70220796)"
1725,Devon & California,41.99750181,-87.69980027,0,1,"(41.99750181, -87.69980027)"
1726,Devon & Washtenaw,41.99752053,-87.69734596,0,1,"(41.99752053, -87.69734596)"
1728,Devon & Campbell,41.99762675,-87.69231295,0,1,"(41.99762675, -87.69231295)"
1729,Devon & Western,41.99764551,-87.69009024,0,1,"(41.99764551, -87.69009024)"
1730,Devon & Oakley,41.99769997,-87.68752725,0,1,"(41.99769997, -87.68752725)"
1732,Devon & Hoyne,41.99774722,-87.68267389,0,1,"(41.99774722, -87.68267389)"
1733,Devon & Damen,41.99778922,-87.68021789,0,1,"(41.99778922, -87.68021789)"
1736,Devon & Hermitage,41.99795405,-87.67359255,0,1,"(41.99795405, -87.67359255)"
